,transaction_id,date,client_id_x,card_id,amount,use_chip,merchant_id,merchant_city,merchant_state,zip,mcc,errors,date_only,target,current_age,retirement_age,birth_year,birth_month,address,latitude,longitude,per_capita_income,yearly_income,total_debt,credit_score,num_credit_cards,gender_encoded,client_id_y,card_brand,card_type,card_number,expires,cvv,has_chip,num_cards_issued,credit_limit,acct_open_date,year_pin_last_changed,mcc_description
0,19765990,2017-07-07 09:53:00,1581,2519,12.35,Chip Transaction,20519,Arnold,MO,63010.0,5942,,2017-07-07,0,38,65,1981,11,9324 Catherine Street,38.42,-90.36,21744.0,44334.0,55173.0,684,5,1,1581,Visa,Debit,4564719638698318,2020-12-01,446,1,1,26596.0,2006-04-01,2015,Book Stores
1,22160255,2018-11-26 17:44:00,1862,4049,58.29,Chip Transaction,98648,Des Moines,IA,50313.0,5814,,2018-11-26,0,25,65,1994,4,7111 Lexington Avenue,41.57,-93.61,18568.0,37864.0,57052.0,686,1,1,1862,Visa,Credit,4495571717001479,2023-09-01,778,1,2,10200.0,2016-07-01,2016,Fast Food Restaurants
2,17566794,2016-03-26 12:42:00,1967,3367,11.03,Chip Transaction,46978,Lake Forest,CA,92630.0,5411,,2016-03-26,0,55,74,1964,9,3570 North Boulevard,33.64,-117.67,30307.0,61793.0,686.0,767,4,0,1967,Visa,Debit,4738213924782743,2020-09-01,383,1,2,38120.0,2007-06-01,2011,"Grocery Stores, Supermarkets"
3,17318690,2016-02-01 08:30:00,921,3457,85.74,Chip Transaction,63701,Rush,NY,14543.0,5411,,2016-02-01,0,74,66,1945,5,960 Mill Lane,42.98,-77.67,26072.0,54013.0,3628.0,779,8,0,921,Visa,Debit,4319734914723878,2020-05-01,720,1,1,35073.0,2009-06-01,2009,"Grocery Stores, Supermarkets"
4,20994060,2018-03-24 14:42:00,456,2800,13.43,Chip Transaction,83271,Estero,FL,33928.0,4214,,2018-03-24,0,54,63,1965,10,600 Grant Lane,26.63,-81.99,17140.0,34947.0,49024.0,751,3,0,456,Visa,Credit,4751933848032848,2024-12-01,614,1,1,5800.0,1998-05-01,2009,Motor Freight Carriers and Trucking
5,20501200,2017-12-09 22:26:00,0,4639,53.12,Chip Transaction,14040,Morgan,VT,5853.0,5813,,2017-12-09,0,33,69,1986,3,858 Plum Avenue,43.59,-70.33,29237.0,59613.0,36199.0,763,4,0,0,Mastercard,Credit,5802759460691737,2019-12-01,312,1,1,17600.0,2007-09-01,2014,Drinking Places (Alcoholic Beverages)
6,18454176,2016-10-01 21:40:00,408,4960,52.86,Chip Transaction,75781,Cable,WI,54821.0,5411,,2016-10-01,0,58,62,1961,4,690 Hill Lane,45.4,-91.84,15371.0,31343.0,49537.0,741,3,1,408,Visa,Credit,4749273777651489,2022-03-01,809,1,2,6900.0,2001-10-01,2011,"Grocery Stores, Supermarkets"
7,21998064,2018-10-23 12:50:00,1432,4929,35.33,Swipe Transaction,59292,Lake Hopatcong,NJ,7849.0,5813,,2018-10-23,0,42,72,1977,8,78 Lexington Street,40.96,-74.61,34205.0,69747.0,80763.0,741,4,0,1432,Visa,Credit,4628195999996989,2023-07-01,543,1,1,19400.0,1996-10-01,2012,Drinking Places (Alcoholic Beverages)
8,18977227,2017-01-21 09:30:00,177,2681,188.77,Chip Transaction,86616,Memphis,TN,38104.0,4814,,2017-01-21,0,54,66,1965,12,294 Bayview Lane,35.1,-90.0,28570.0,58248.0,107130.0,728,4,1,177,Mastercard,Credit,5237138657431099,2023-09-01,589,1,1,11900.0,2011-04-01,2011,Telecommunication Services
9,17244867,2016-01-16 13:40:00,1895,1090,27.4,Chip Transaction,68436,Barnegat,NJ,8005.0,4121,,2016-01-16,0,56,65,1963,3,900 Littlewood Street,39.75,-74.22,20034.0,40848.0,146608.0,706,2,1,1895,Mastercard,Debit,5343513913226549,2023-09-01,514,1,1,13922.0,2006-02-01,2012,Taxicabs and Limousines
10,17266754,2016-01-21 06:30:00,846,3443,4.43,Chip Transaction,18511,Omaha,NE,68136.0,7542,,2016-01-21,0,48,66,1971,11,58 Catherine Drive,41.26,-96.01,33232.0,67761.0,0.0,745,4,1,846,Visa,Credit,4518067619451768,2020-06-01,429,1,2,0.0,2009-06-01,2011,Car Washes
11,20085114,2017-09-12 20:08:00,1904,1004,54.0,Chip Transaction,59935,Mcalester,OK,74501.0,5499,,2017-09-12,0,69,70,1951,2,5844 Littlewood Street,35.95,-95.38,15195.0,30983.0,10019.0,757,5,0,1904,Mastercard,Debit,5660745375245497,2022-07-01,27,1,1,7597.0,2002-02-01,2005,Miscellaneous Food Stores
12,20446347,2017-11-28 11:58:00,696,39,100.41,Chip Transaction,66278,Cabo San Lucas,Mexico,,5310,,2017-11-28,0,74,67,1945,7,5064 North Lane,40.63,-73.72,45685.0,110570.0,5700.0,766,8,1,696,Mastercard,Debit,5562768142811109,2024-10-01,267,1,2,21225.0,2003-01-01,2012,Discount Stores
13,20741827,2018-01-29 22:37:00,1439,6094,31.98,Chip Transaction,21072,Mosheim,TN,37818.0,5912,,2018-01-29,0,28,65,1991,11,5663 Martin Luther King Boulevard,36.19,-82.95,14406.0,29371.0,32300.0,715,2,1,1439,Visa,Debit,4419147752018938,2022-11-01,287,1,1,18945.0,2013-12-01,2013,Drug Stores and Pharmacies
14,19788807,2017-07-12 08:07:00,762,1080,63.54,Online Transaction,39021,ONLINE,,,4784,,2017-07-12,0,49,59,1970,9,813 Fifth Boulevard,40.63,-82.96,18293.0,37298.0,52134.0,683,1,0,762,Mastercard,Debit,5899151162296319,2020-11-01,920,1,1,13569.0,2006-02-01,2007,Tolls and Bridge Fees
15,17292719,2016-01-26 15:30:00,1358,3426,26.96,Online Transaction,9932,ONLINE,,,5311,,2016-01-26,0,69,70,1950,4,128 Main Street,43.1,-89.5,33808.0,68930.0,72619.0,768,4,1,1358,Mastercard,Debit (Prepaid),5722130479224541,2020-05-01,447,1,1,80.0,2009-06-01,2012,Department Stores
16,18123493,2016-07-23 09:09:00,386,3673,4.65,Chip Transaction,7237,Framingham,MA,1702.0,5812,,2016-07-23,0,48,64,1971,11,3034 Third Boulevard,42.26,-71.8,24506.0,49967.0,62509.0,655,1,0,386,Mastercard,Debit,5639527120868397,2023-10-01,126,1,1,25093.0,2002-07-01,2006,Eating Places and Restaurants
17,18406261,2016-09-21 13:34:00,51,6031,60.3,Chip Transaction,37861,Hendersonville,TN,37075.0,7230,,2016-09-21,0,29,67,1991,2,3260 Hillside Lane,36.29,-86.6,25166.0,51303.0,106248.0,688,3,1,51,Visa,Credit,4718480260665073,2020-07-01,909,1,1,12700.0,2010-12-01,2011,Beauty and Barber Shops
18,20465851,2017-12-02 12:41:00,1727,5982,-60.0,Swipe Transaction,61195,Columbia,SC,29229.0,5541,,2017-12-02,0,46,67,1973,10,31 Oak Avenue,34.0,-81.03,23917.0,48762.0,143208.0,771,6,1,1727,Visa,Debit,4475380884726150,2024-06-01,972,1,1,24230.0,2009-12-01,2011,Service Stations
19,21959996,2018-10-15 10:28:00,1763,4297,2.72,Swipe Transaction,93466,Minneapolis,MN,55429.0,5411,,2018-10-15,0,49,66,1970,6,6593 North Avenue,44.96,-93.26,18660.0,38039.0,27179.0,717,3,0,1763,Mastercard,Debit,5300904662487175,2021-03-01,946,0,1,30096.0,2009-08-01,2009,"Grocery Stores, Supermarkets"
20,18389195,2016-09-18 05:01:00,1954,4879,162.24,Chip Transaction,60569,Cerritos,CA,90703.0,5300,,2016-09-18,0,47,68,1973,1,965 Wessex Street,33.94,-117.95,23740.0,48406.0,80441.0,683,3,1,1954,Visa,Credit,4802501874295829,2024-04-01,196,1,2,5900.0,2014-09-01,2014,Wholesale Clubs
21,19281361,2017-03-27 07:30:00,1046,3259,74.0,Chip Transaction,41260,San Antonio,TX,78225.0,5541,,2017-03-27,0,44,66,1975,6,9414 Summit Boulevard,39.95,-75.16,18007.0,36715.0,74022.0,547,4,0,1046,Visa,Debit,4890055017613535,2021-04-01,956,1,2,10124.0,2003-06-01,2018,Service Stations
22,21886417,2018-09-29 15:12:00,1568,977,5.17,Chip Transaction,20519,Melville,NY,11747.0,5942,,2018-09-29,0,47,67,1972,5,3816 Spruce Drive,40.67,-73.39,21077.0,42976.0,58765.0,748,3,1,1568,Mastercard,Debit,5318873508559141,2020-04-01,125,1,2,14418.0,2000-02-01,2005,Book Stores
23,17985031,2016-06-23 15:00:00,349,4314,54.11,Chip Transaction,60569,Wooster,OH,44691.0,5300,,2016-06-23,0,40,61,1979,12,1943 Birch Street,40.84,-81.63,21201.0,43229.0,96831.0,685,2,1,349,Visa,Debit,4848387288995352,2020-09-01,393,1,1,30348.0,2009-08-01,2010,Wholesale Clubs
24,20871587,2018-02-26 14:55:00,652,2502,14.83,Chip Transaction,20604,Groton,CT,6340.0,7832,,2018-02-26,0,82,66,1937,9,9952 South Lane,41.76,-72.61,20065.0,22726.0,1692.0,784,6,1,652,Amex,Credit,399097109736535,2023-12-01,311,1,2,16500.0,2006-04-01,2016,Motion Picture Theaters
25,20453089,2017-11-29 19:05:00,456,4576,43.09,Online Transaction,50404,ONLINE,,,4784,,2017-11-29,0,54,63,1965,10,600 Grant Lane,26.63,-81.99,17140.0,34947.0,49024.0,751,3,0,456,Mastercard,Debit,5915761072331247,2020-08-01,754,1,2,12594.0,2005-09-01,2014,Tolls and Bridge Fees
26,21516706,2018-07-13 12:25:00,569,2764,39.49,Chip Transaction,43293,Sherwood,AR,72120.0,5499,,2018-07-13,0,52,73,1968,2,29 Martin Luther King Lane,34.83,-92.2,22377.0,45625.0,81136.0,662,1,0,569,Visa,Credit,4345309820081331,2022-08-01,761,1,2,5900.0,2016-04-01,2016,Miscellaneous Food Stores
27,19434940,2017-04-28 12:50:00,178,4261,5.59,Chip Transaction,41982,Blue Springs,MO,64015.0,5411,,2017-04-28,0,47,66,1972,7,27 Third Avenue,39.01,-94.28,24057.0,49045.0,0.0,727,3,1,178,Mastercard,Debit,5041406633994156,2023-01-01,155,1,2,17206.0,2008-08-01,2010,"Grocery Stores, Supermarkets"
28,21103571,2018-04-16 18:53:00,408,4960,-60.0,Chip Transaction,59935,Barron,WI,54812.0,5499,,2018-04-16,0,58,62,1961,4,690 Hill Lane,45.4,-91.84,15371.0,31343.0,49537.0,741,3,1,408,Visa,Credit,4749273777651489,2022-03-01,809,1,2,6900.0,2001-10-01,2011,Miscellaneous Food Stores
29,20808204,2018-02-13 07:54:00,1226,6055,36.01,Chip Transaction,30006,Waimanalo,HI,96795.0,4900,,2018-02-13,0,42,67,1978,2,376 Fourth Drive,21.34,-157.72,18080.0,36860.0,65049.0,714,3,0,1226,Visa,Debit (Prepaid),4856808577039430,2024-10-01,49,1,1,64.0,2011-12-01,2011,"Utilities - Electric, Gas, Water, Sanitary"
30,20239952,2017-10-15 16:03:00,822,5424,100.0,Chip Transaction,27092,Imperial Beach,CA,91933.0,4829,,2017-10-15,0,51,68,1968,4,6323 Sussex Boulevard,32.61,-117.03,16942.0,34540.0,22641.0,793,5,1,822,Mastercard,Debit,5985582173054292,2024-07-01,951,1,1,29351.0,2005-11-01,2007,Money Transfer
31,17200244,2016-01-06 20:13:00,566,4547,19.83,Online Transaction,18563,ONLINE,,,4121,,2016-01-06,0,60,67,1959,10,8179 Valley Stream Drive,42.79,-83.62,22680.0,46244.0,108449.0,814,5,1,566,Amex,Credit,304564349597311,2024-11-01,170,1,2,12700.0,2004-09-01,2008,Taxicabs and Limousines
32,21758023,2018-09-02 10:48:00,140,3041,16.78,Chip Transaction,93292,Whites Creek,TN,37189.0,4121,,2018-09-02,0,37,72,1983,2,108 Washington Street,36.28,-86.83,20657.0,42120.0,72801.0,739,4,1,140,Mastercard,Debit,5529182104663869,2022-01-01,182,1,1,19110.0,2010-05-01,2011,Taxicabs and Limousines
33,22167375,2018-11-28 10:25:00,1881,359,3.4,Chip Transaction,20519,Dearborn,MI,48126.0,5942,,2018-11-28,0,67,67,1952,9,159 Mill Street,42.05,-83.38,22321.0,56542.0,9097.0,733,6,0,1881,Visa,Debit,4584347378978298,2021-03-01,249,1,2,18548.0,2016-01-01,2016,Book Stores
34,21772299,2018-09-05 12:39:00,1379,4796,186.39,Chip Transaction,57133,Waianae,HI,96792.0,3730,,2018-09-05,0,76,72,1943,6,93374 11th Street,42.58,-82.91,19780.0,34408.0,9107.0,701,4,0,1379,Visa,Credit,4164100335475856,2022-10-01,338,1,1,10300.0,2010-09-01,2010,Ship Chandlers
35,18597149,2016-11-01 11:03:00,997,5046,1.64,Chip Transaction,14528,Chula Vista,CA,91913.0,5499,,2016-11-01,0,57,67,1963,2,339 Little Creek Lane,32.64,-116.98,26957.0,54963.0,105623.0,675,4,1,997,Discover,Credit,6867180010349307,2023-07-01,59,1,1,11200.0,2006-10-01,2006,Miscellaneous Food Stores
36,22309197,2018-12-28 09:18:00,134,6120,5.27,Swipe Transaction,6836,El Paso,TX,79912.0,5411,,2018-12-28,0,43,67,1976,12,924 First Drive,31.84,-106.43,24608.0,50174.0,145300.0,643,4,0,134,Mastercard,Credit,5270343966236915,2022-08-01,997,1,1,9400.0,2016-12-01,2016,"Grocery Stores, Supermarkets"
37,19768714,2017-07-07 19:14:00,1147,2042,12.1,Swipe Transaction,50783,New Brunswick,NJ,8901.0,5411,,2017-07-07,0,80,69,1939,3,614 Spruce Avenue,40.6,-74.76,46827.0,104692.0,6955.0,704,2,0,1147,Mastercard,Debit,5065968170690023,2021-10-01,724,0,2,18050.0,2003-03-01,2010,"Grocery Stores, Supermarkets"
38,18067362,2016-07-11 09:55:00,1871,4429,88.32,Swipe Transaction,47756,Albuquerque,NM,87121.0,5411,,2016-07-11,0,83,65,1936,7,3241 Park Lane,35.11,-106.62,15385.0,16611.0,1797.0,696,5,0,1871,Mastercard,Debit,5896330225827400,2024-08-01,851,0,2,20277.0,2014-08-01,2014,"Grocery Stores, Supermarkets"
39,21415510,2018-06-22 07:08:00,1104,5766,99.0,Swipe Transaction,43293,Pompano Beach,FL,33060.0,5499,,2018-06-22,0,91,66,1928,3,120 Lafayette Boulevard,26.23,-80.13,18266.0,40141.0,805.0,850,6,0,1104,Visa,Debit,4061173043608031,2021-05-01,265,1,1,16578.0,2000-12-01,2010,Miscellaneous Food Stores
40,20165542,2017-09-29 20:34:00,526,2091,44.07,Chip Transaction,22204,Miami,FL,33134.0,5541,,2017-09-29,0,51,62,1968,3,54870 Lexington Drive,25.77,-80.2,31625.0,64481.0,114394.0,627,5,1,526,Mastercard,Debit,5507762507273350,2022-01-01,170,1,1,23652.0,2005-03-01,2014,Service Stations
41,17515093,2016-03-15 09:05:00,1050,3472,26.95,Chip Transaction,60569,Greenville,NC,27834.0,5300,,2016-03-15,0,43,65,1976,3,41332 Lincoln Avenue,35.98,-78.91,17625.0,35938.0,47204.0,670,3,1,1050,Mastercard,Debit,5254337924232892,2024-07-01,93,1,2,10224.0,2010-06-01,2016,Wholesale Clubs
42,20714743,2018-01-24 09:39:00,285,3442,26.66,Chip Transaction,30565,Watsonville,CA,95076.0,5912,,2018-01-24,0,62,69,1957,8,702 Elm Drive,36.95,-121.72,16920.0,34496.0,33122.0,731,5,0,285,Visa,Debit (Prepaid),4099931530727553,2022-02-01,393,1,1,65.0,2009-06-01,2009,Drug Stores and Pharmacies
43,19906566,2017-08-05 23:43:00,479,2186,1.24,Swipe Transaction,14528,Pasadena,MD,21122.0,5499,,2017-08-05,0,57,69,1962,10,936 12th Street,39.11,-76.55,30004.0,61173.0,71422.0,692,3,0,479,Mastercard,Credit,5692954458453302,2021-09-01,528,1,1,16600.0,2008-03-01,2014,Miscellaneous Food Stores
44,20992078,2018-03-24 08:49:00,1107,6112,56.82,Swipe Transaction,7871,Candor,NY,13743.0,5912,,2018-03-24,0,71,69,1949,1,836 Summit Boulevard,42.23,-76.34,18323.0,40516.0,6908.0,698,5,1,1107,Mastercard,Debit,5678186427083264,2023-04-01,765,1,1,16678.0,2015-12-01,2015,Drug Stores and Pharmacies
45,22223455,2018-12-10 07:07:00,1989,3800,24.03,Swipe Transaction,2105,Upper Marlboro,MD,20774.0,5912,,2018-12-10,0,31,66,1988,12,3487 Bayview Drive,38.81,-76.75,33295.0,67886.0,7137.0,803,4,0,1989,Amex,Credit,387783458708691,2024-03-01,124,1,1,21200.0,2007-07-01,2011,Drug Stores and Pharmacies
46,19945615,2017-08-14 11:32:00,679,2894,33.34,Chip Transaction,63694,Jackson Center,PA,16133.0,5411,,2017-08-14,0,57,69,1962,11,1690 Main Avenue,41.27,-80.13,16809.0,34272.0,39514.0,765,4,0,679,Amex,Credit,326701965155978,2017-11-01,478,1,1,9900.0,2006-05-01,2007,"Grocery Stores, Supermarkets"
47,21952211,2018-10-13 14:51:00,114,3070,91.0,Chip Transaction,61195,North Hollywood,CA,91606.0,5541,,2018-10-13,0,47,65,1972,12,112 Elm Avenue,34.18,-118.39,16892.0,34441.0,907.0,725,4,1,114,Mastercard,Debit,5471501151275219,2019-01-01,875,1,2,16617.0,2010-05-01,2011,Service Stations
48,19897172,2017-08-04 04:49:00,1826,5779,7.34,Chip Transaction,32858,Fort Walton Beach,FL,32548.0,5311,,2017-08-04,0,45,61,1974,5,94936 Elm Drive,28.92,-81.92,8155.0,16628.0,33926.0,654,1,1,1826,Mastercard,Debit (Prepaid),5691905533359944,2024-10-01,982,1,1,49.0,2002-12-01,2009,Department Stores
49,21778956,2018-09-06 18:47:00,1495,5767,77.73,Chip Transaction,68389,Indianapolis,IN,46256.0,5812,Technical Glitch,2018-09-06,0,52,70,1967,12,469 Mountain View Boulevard,39.77,-86.14,31114.0,63433.0,122550.0,770,7,0,1495,Visa,Debit,4126791237469970,2020-07-01,502,1,1,25497.0,2000-12-01,2012,Eating Places and Restaurants
50,20278627,2017-10-24 02:44:00,1487,4946,22.73,Chip Transaction,98374,Renfrew,PA,16053.0,5411,,2017-10-24,0,59,69,1961,2,4793 North Street,40.69,-80.01,39464.0,80464.0,76261.0,727,3,1,1487,Visa,Credit,4984110253172329,2021-06-01,453,1,2,24200.0,2000-10-01,2013,"Grocery Stores, Supermarkets"
51,21931038,2018-10-09 08:41:00,1096,3012,42.0,Swipe Transaction,46983,Syracuse,NY,13212.0,5912,,2018-10-09,0,59,67,1960,10,1089 Norfolk Avenue,43.04,-76.14,20294.0,41379.0,95988.0,681,2,0,1096,Mastercard,Credit,5257815762743073,2020-10-01,52,1,2,5500.0,2009-05-01,2009,Drug Stores and Pharmacies
52,18769849,2016-12-08 06:43:00,1150,1225,93.34,Swipe Transaction,61195,Hurst,TX,76054.0,5541,,2016-12-08,0,46,67,1973,4,5692 Jefferson Boulevard,32.83,-97.17,30913.0,63030.0,93406.0,791,5,0,1150,Mastercard,Credit,5587070999180300,2023-04-01,335,1,2,9700.0,2010-02-01,2011,Service Stations
53,18437277,2016-09-28 08:36:00,1840,3322,71.0,Swipe Transaction,43293,Beaverton,OR,97005.0,5499,,2016-09-28,0,46,71,1974,2,576 Martin Luther King Street,45.49,-122.8,21702.0,44249.0,103229.0,706,5,1,1840,Mastercard,Debit,5359109609282459,2023-05-01,933,1,2,21701.0,2006-06-01,2007,Miscellaneous Food Stores
54,18612018,2016-11-04 13:17:00,820,3224,44.23,Chip Transaction,50783,Harwich,MA,2645.0,5411,,2016-11-04,0,70,59,1949,12,669 South Street,41.7,-70.3,26762.0,41902.0,29713.0,633,5,1,820,Mastercard,Credit,5880489541836648,2024-06-01,558,1,1,15100.0,2001-06-01,2010,"Grocery Stores, Supermarkets"
55,19725554,2017-06-28 19:31:00,118,3557,39.49,Chip Transaction,69972,Birmingham,AL,35212.0,5814,,2017-06-28,0,56,68,1963,12,407 Seventh Lane,33.52,-86.79,15471.0,31533.0,42315.0,753,3,1,118,Visa,Debit,4142110459052351,2024-09-01,112,1,1,20653.0,2012-06-01,2012,Fast Food Restaurants
56,19625184,2017-06-07 16:39:00,580,2724,10.39,Chip Transaction,78113,Celina,OH,45822.0,5921,,2017-06-07,0,35,65,1984,5,5094 Lafayette Boulevard,40.55,-84.57,18077.0,36857.0,3112.0,768,3,0,580,Mastercard,Debit,5498308482575223,2021-03-01,952,1,1,14471.0,2014-04-01,2014,"Package Stores, Beer, Wine, Liquor"
57,18287842,2016-08-27 10:57:00,1769,295,19.74,Swipe Transaction,70927,Manahawkin,NJ,8050.0,7538,,2016-08-27,0,75,65,1944,7,177 Mill Boulevard,39.69,-74.25,21861.0,46031.0,8332.0,661,5,0,1769,Mastercard,Debit (Prepaid),5928394327706854,2021-11-01,853,0,1,78.0,2012-01-01,2012,Automotive Service Shops
58,21231149,2018-05-13 18:09:00,1118,362,81.17,Chip Transaction,17493,Pittsburgh,PA,15212.0,5812,,2018-05-13,0,25,70,1994,8,166 Littlewood Lane,34.06,-118.35,40761.0,83104.0,222502.0,714,5,1,1118,Visa,Credit,4833091752929426,2023-06-01,461,1,1,17100.0,2017-01-01,2017,Eating Places and Restaurants
59,19241486,2017-03-18 12:48:00,171,1239,260.29,Chip Transaction,18138,Greenville,SC,29607.0,4900,,2017-03-18,0,43,70,1976,5,5194 Grant Street,34.83,-82.37,24314.0,49577.0,142314.0,694,3,1,171,Visa,Debit,4548390986370918,2021-10-01,555,1,2,21022.0,2010-02-01,2011,"Utilities - Electric, Gas, Water, Sanitary"
60,19279089,2017-03-26 14:46:00,121,5952,8.29,Chip Transaction,91717,Menasha,WI,54952.0,5912,,2017-03-26,0,34,66,1985,11,71858 Mountain View Street,44.21,-88.43,22277.0,45419.0,124370.0,721,3,1,121,Visa,Debit,4716535552633032,2023-02-01,508,1,1,18137.0,2008-12-01,2011,Drug Stores and Pharmacies
61,18730643,2016-11-29 16:13:00,502,2018,0.4,Chip Transaction,14528,Rural Valley,PA,16249.0,5499,,2016-11-29,0,46,66,1974,1,434 Bayview Avenue,40.93,-79.59,17870.0,36440.0,30574.0,745,2,0,502,Discover,Credit,6910816000642923,2020-03-01,845,1,2,7900.0,2001-03-01,2004,Miscellaneous Food Stores
62,17806969,2016-05-16 19:40:00,0,1271,5.35,Chip Transaction,55060,Scarborough,ME,4074.0,5812,,2016-05-16,0,33,69,1986,3,858 Plum Avenue,43.59,-70.33,29237.0,59613.0,36199.0,763,4,0,0,Mastercard,Debit,5050211780967429,2021-04-01,316,1,2,31490.0,2011-02-01,2011,Eating Places and Restaurants
63,21052082,2018-04-05 22:21:00,754,5450,122.42,Chip Transaction,48919,Myrtle Beach,SC,29579.0,5311,,2018-04-05,0,76,69,1943,3,15 Elm Lane,33.69,-78.89,19025.0,32817.0,27209.0,705,6,1,754,Amex,Credit,337641023717610,2023-08-01,902,1,2,10100.0,2006-11-01,2010,Department Stores
64,18462654,2016-10-03 15:31:00,983,6049,19.66,Swipe Transaction,54943,Oswego,NY,13126.0,7542,,2016-10-03,0,77,67,1942,8,8407 Forest Drive,43.45,-76.5,20447.0,47993.0,3080.0,827,5,0,983,Mastercard,Debit,5146883948059613,2018-06-01,867,1,2,13657.0,2011-12-01,2011,Car Washes
65,21618857,2018-08-03 22:59:00,1895,1090,31.99,Chip Transaction,88646,Browns Mills,NJ,8015.0,5812,,2018-08-03,0,56,65,1963,3,900 Littlewood Street,39.75,-74.22,20034.0,40848.0,146608.0,706,2,1,1895,Mastercard,Debit,5343513913226549,2023-09-01,514,1,1,13922.0,2006-02-01,2012,Eating Places and Restaurants
66,19189903,2017-03-07 13:44:00,311,4869,1.75,Chip Transaction,3374,Saint George,UT,84770.0,5912,,2017-03-07,0,46,68,1973,12,8070 Mill Lane,37.18,-113.6,14470.0,29510.0,47153.0,752,4,1,311,Amex,Credit,398921295633424,2024-01-01,659,1,2,6600.0,2014-09-01,2014,Drug Stores and Pharmacies
67,19237991,2017-03-17 16:51:00,320,3384,100.74,Swipe Transaction,50940,Tucson,AZ,85710.0,5912,,2017-03-17,0,34,75,1985,8,6444 Madison Drive,32.22,-110.82,17480.0,35641.0,64419.0,625,2,0,320,Mastercard,Debit,5421302444823985,2024-09-01,889,0,2,15292.0,2008-06-01,2011,Drug Stores and Pharmacies
68,22148936,2018-11-24 11:33:00,1171,5354,13.53,Chip Transaction,94858,Kailua,HI,96734.0,5411,,2018-11-24,0,90,67,1929,12,73 Summit Street,21.4,-157.73,26370.0,39214.0,0.0,781,5,0,1171,Visa,Debit (Prepaid),4958617093286807,2023-02-01,218,1,2,89.0,1997-11-01,2003,"Grocery Stores, Supermarkets"
69,20485724,2017-12-06 16:39:00,879,4500,10.95,Chip Transaction,58892,Brownsville,TX,78521.0,5411,,2017-12-06,0,54,66,1966,2,938 Forest Street,25.92,-97.48,11140.0,22714.0,27227.0,702,3,0,879,Visa,Debit,4988862076390748,2024-08-01,244,1,2,12184.0,1999-09-01,2010,"Grocery Stores, Supermarkets"
70,22293545,2018-12-25 06:53:00,586,3124,7.28,Chip Transaction,25379,Asheville,NC,28804.0,5921,,2018-12-25,0,37,63,1983,2,372 12th Boulevard,35.57,-82.54,22983.0,46864.0,58954.0,751,4,0,586,Visa,Debit,4957920148379718,2022-11-01,577,1,1,30952.0,2012-05-01,2012,"Package Stores, Beer, Wine, Liquor"
71,20742079,2018-01-30 03:28:00,964,294,91.15,Chip Transaction,49801,Palisades Park,NJ,7650.0,5651,,2018-01-30,0,48,66,1971,12,33 North Avenue,40.84,-73.99,22278.0,45422.0,83940.0,689,4,1,964,Amex,Credit,340045632784763,2020-02-01,218,1,1,13700.0,2012-01-01,2012,Family Clothing Stores
72,21934751,2018-10-10 04:55:00,33,2404,9.0,Chip Transaction,56895,Carson City,NV,89706.0,7230,,2018-10-10,0,77,71,1942,6,6335 Rose Lane,39.21,-119.71,18239.0,38692.0,8902.0,596,5,1,33,Mastercard,Debit,5121416562354073,2024-04-01,857,1,2,4589.0,1999-04-01,2011,Beauty and Barber Shops
73,18594351,2016-10-31 17:39:00,154,4340,56.0,Chip Transaction,22204,Fayetteville,NC,28314.0,5541,,2016-10-31,0,48,61,1971,6,8993 Madison Avenue,34.93,-78.72,18376.0,37468.0,73448.0,666,3,0,154,Visa,Debit,4287822159932211,2022-11-01,878,1,2,4660.0,2010-08-01,2013,Service Stations
74,17272442,2016-01-22 10:25:00,1891,5440,22.69,Chip Transaction,98374,Daytona Beach,FL,32121.0,5411,,2016-01-22,0,47,66,1973,2,96 Jefferson Street,29.19,-81.05,16733.0,34112.0,39842.0,725,4,1,1891,Visa,Debit,4759457733349546,2021-10-01,437,1,1,19829.0,2005-11-01,2010,"Grocery Stores, Supermarkets"
75,21549174,2018-07-20 09:50:00,149,3590,21.61,Chip Transaction,75781,Helena,AL,35080.0,5411,,2018-07-20,0,24,54,1995,3,5 Hill Avenue,33.02,-117.12,44747.0,91237.0,231619.0,594,1,1,149,Mastercard,Credit,5425086965050395,2022-07-01,286,1,1,14200.0,2015-06-01,2015,"Grocery Stores, Supermarkets"
76,18511437,2016-10-13 23:30:00,1069,3922,45.5,Online Transaction,39021,ONLINE,,,4784,,2016-10-13,0,54,69,1965,9,3683 Fifth Street,35.3,-81.03,22487.0,45852.0,114746.0,615,2,0,1069,Amex,Credit,304372446656131,2021-03-01,495,1,1,8800.0,2010-07-01,2010,Tolls and Bridge Fees
77,17364611,2016-02-11 05:36:00,1719,3052,3.07,Chip Transaction,44578,Middleport,OH,45760.0,5812,,2016-02-11,0,81,64,1938,9,678 Park Drive,25.77,-80.2,19386.0,23217.0,2559.0,616,3,1,1719,Mastercard,Debit,5649993743023413,2022-05-01,600,1,2,16034.0,2010-05-01,2010,Eating Places and Restaurants
78,17938109,2016-06-13 16:46:00,1595,2429,55.41,Chip Transaction,20519,Bronx,NY,10464.0,5942,,2016-06-13,0,47,65,1972,5,4191 Maple Avenue,40.84,-73.87,25537.0,52063.0,87549.0,753,2,1,1595,Mastercard,Debit,5755792909736498,2023-08-01,338,1,1,17749.0,2002-04-01,2011,Book Stores
79,19521053,2017-05-16 18:43:00,570,5897,82.0,Chip Transaction,43293,Gainesville,GA,30504.0,5499,,2017-05-16,0,34,65,1985,9,6781 Ocean View Drive,34.29,-83.83,15814.0,32245.0,43097.0,625,1,0,570,Mastercard,Debit,5407444040414986,2024-01-01,334,1,1,19132.0,2007-12-01,2014,Miscellaneous Food Stores
80,22325415,2018-12-31 16:43:00,1851,5026,11.91,Chip Transaction,60569,Wake Forest,NC,27587.0,5300,,2018-12-31,0,48,72,1972,1,73 Essex Lane,35.83,-78.83,37121.0,75682.0,37163.0,727,5,0,1851,Mastercard,Debit (Prepaid),5128224925042600,2021-03-01,416,1,2,62.0,2005-10-01,2008,Wholesale Clubs
81,18166244,2016-08-01 10:13:00,1825,4310,28.55,Chip Transaction,20519,Englewood,CO,80110.0,5942,,2016-08-01,0,70,65,1949,9,817 Ocean Avenue,39.69,-104.81,24849.0,45754.0,9066.0,718,4,1,1825,Visa,Debit,4588131276802665,2020-10-01,194,1,1,23878.0,2009-08-01,2011,Book Stores
82,18359972,2016-09-11 16:46:00,1644,3001,11.66,Chip Transaction,24504,Blacksburg,SC,29702.0,4214,,2016-09-11,0,83,65,1937,1,637 Seventh Street,34.66,-83.09,15406.0,31943.0,1248.0,686,6,0,1644,Mastercard,Debit,5998143511839617,2022-05-01,174,1,1,8304.0,2009-05-01,2013,Motor Freight Carriers and Trucking
83,21360255,2018-06-10 10:29:00,811,2318,8.68,Chip Transaction,61195,Overland Park,KS,66221.0,5541,,2018-06-10,0,91,68,1929,2,5492 Maple Drive,38.9,-94.68,51642.0,84694.0,2149.0,741,7,1,811,Visa,Debit,4055403312631050,2021-07-01,902,1,1,33375.0,2013-03-01,2013,Service Stations
84,21996434,2018-10-23 06:49:00,1595,2429,31.77,Chip Transaction,20519,Bronx,NY,10464.0,5942,,2018-10-23,0,47,65,1972,5,4191 Maple Avenue,40.84,-73.87,25537.0,52063.0,87549.0,753,2,1,1595,Mastercard,Debit,5755792909736498,2023-08-01,338,1,1,17749.0,2002-04-01,2011,Book Stores
85,22115723,2018-11-17 10:25:00,1347,5678,7.78,Chip Transaction,98374,Elizabeth City,NC,27909.0,5411,,2018-11-17,0,64,64,1955,5,893 Littlewood Lane,35.73,-77.92,23756.0,55418.0,20950.0,590,3,1,1347,Mastercard,Debit,5212401746902609,2021-11-01,77,1,2,17079.0,2012-11-01,2012,"Grocery Stores, Supermarkets"
86,20167781,2017-09-30 10:45:00,538,5441,51.0,Chip Transaction,26810,Winterville,NC,28590.0,5541,,2017-09-30,0,66,69,1954,2,7888 Fourth Street,35.3,-77.15,14844.0,30265.0,36789.0,814,4,1,538,Visa,Credit,4648780918814877,2020-06-01,520,1,2,7000.0,2005-11-01,2018,Service Stations
87,22229896,2018-12-11 14:47:00,921,3537,14.12,Chip Transaction,20561,Spencerport,NY,14559.0,5912,,2018-12-11,0,74,66,1945,5,960 Mill Lane,42.98,-77.67,26072.0,54013.0,3628.0,779,8,0,921,Visa,Debit,4226627955079711,2024-10-01,874,1,1,24069.0,2011-06-01,2011,Drug Stores and Pharmacies
88,17953265,2016-06-16 19:05:00,1147,3924,13.38,Chip Transaction,50783,New Brunswick,NJ,8901.0,5411,,2016-06-16,0,80,69,1939,3,614 Spruce Avenue,40.6,-74.76,46827.0,104692.0,6955.0,704,2,0,1147,Discover,Credit,6275110784130495,2022-09-01,286,1,2,21800.0,2010-07-01,2011,"Grocery Stores, Supermarkets"
89,17342455,2016-02-06 11:46:00,39,2039,70.19,Chip Transaction,20561,Old Saybrook,CT,6475.0,5912,,2016-02-06,0,54,67,1965,5,984 Eighth Avenue,41.29,-72.36,30281.0,61740.0,126015.0,583,2,1,39,Visa,Credit,4877727463431062,2023-01-01,537,1,2,16900.0,2002-03-01,2007,Drug Stores and Pharmacies
90,18564930,2016-10-25 12:35:00,1901,3846,13.67,Swipe Transaction,92928,Saint Johns,MI,48879.0,4900,,2016-10-25,0,63,69,1956,3,292 First Avenue,43.69,-84.76,16542.0,33728.0,107287.0,730,3,1,1901,Mastercard,Debit,5584237915645568,2023-08-01,278,0,2,6384.0,2008-07-01,2017,"Utilities - Electric, Gas, Water, Sanitary"
91,21886121,2018-09-29 14:14:00,1888,1016,-84.0,Chip Transaction,26810,Farmington,MN,55024.0,5541,,2018-09-29,0,75,59,1944,6,7854 Plum Avenue,44.65,-93.17,28429.0,41513.0,15899.0,748,3,1,1888,Mastercard,Debit,5552351757816493,2020-02-01,588,1,2,30074.0,2003-02-01,2006,Service Stations
92,18373656,2016-09-14 13:55:00,1600,4251,80.61,Chip Transaction,62157,Kirkland,WA,98033.0,5211,,2016-09-14,0,62,66,1957,9,314 Fourth Street,47.67,-122.18,49629.0,101193.0,124771.0,747,3,1,1600,Mastercard,Debit,5981687076393979,2023-08-01,248,1,1,48754.0,2008-08-01,2013,Lumber and Building Materials
93,22180281,2018-12-01 01:41:00,1955,4184,15.67,Chip Transaction,50783,Canton,NC,28716.0,5411,,2018-12-01,0,85,62,1934,4,7016 Hillside Lane,35.54,-82.84,16248.0,28134.0,2081.0,674,2,1,1955,Mastercard,Debit,5751709126583195,2021-03-01,435,1,1,7338.0,2006-08-01,2016,"Grocery Stores, Supermarkets"
94,21281787,2018-05-24 16:44:00,19,5974,1.69,Chip Transaction,14528,Santa Barbara,CA,93101.0,5499,,2018-05-24,0,82,68,1937,5,6577 Catherine Lane,34.41,-119.7,23071.0,34903.0,1336.0,630,1,1,19,Mastercard,Debit (Prepaid),5885996845393849,2023-02-01,676,1,2,55.0,2009-12-01,2011,Miscellaneous Food Stores
95,20208775,2017-10-09 06:55:00,573,3268,35.37,Swipe Transaction,50867,Stapleton,GA,30823.0,5541,,2017-10-09,0,52,69,1967,7,7970 Little Creek Drive,33.79,-82.47,14717.0,30011.0,84166.0,589,1,0,573,Amex,Credit,350866149120216,2023-09-01,265,1,2,3400.0,2004-06-01,2008,Service Stations
96,21552352,2018-07-20 22:16:00,1070,2908,15.45,Chip Transaction,60569,Cedar Rapids,IA,52402.0,5300,,2018-07-20,0,61,65,1958,11,841 Wessex Boulevard,42.03,-91.58,25275.0,51528.0,58509.0,745,6,0,1070,Mastercard,Debit,5485919338552938,2021-11-01,934,1,1,16898.0,2006-05-01,2013,Wholesale Clubs
97,18264115,2016-08-22 09:18:00,300,3814,142.93,Chip Transaction,10054,Monroe,CT,6468.0,5300,,2016-08-22,0,40,64,1979,12,69 Martin Luther King Street,41.36,-73.2,37131.0,75711.0,121251.0,750,1,0,300,Mastercard,Debit,5809580055839541,2020-12-01,908,1,1,32704.0,2007-07-01,2008,Wholesale Clubs
98,20400965,2017-11-18 16:41:00,497,2829,114.5,Chip Transaction,87509,Sioux Falls,SD,57110.0,4900,,2017-11-18,0,63,65,1956,11,8414 Tenth Drive,43.54,-96.73,25692.0,52380.0,8764.0,850,6,0,497,Mastercard,Debit,5019087087012500,2020-03-01,735,1,1,16681.0,2002-05-01,2011,"Utilities - Electric, Gas, Water, Sanitary"
99,18261157,2016-08-21 14:56:00,571,5960,91.0,Swipe Transaction,28395,Martinsburg,WV,25401.0,5541,,2016-08-21,0,42,68,1977,11,8580 Valley Stream Avenue,39.46,-77.96,18003.0,36711.0,84949.0,739,4,0,571,Mastercard,Debit,5060522440059037,2017-02-01,556,1,1,12247.0,2009-12-01,2009,Service Stations
100,17770233,2016-05-09 04:09:00,538,5441,97.19,Chip Transaction,30286,Winterville,NC,28590.0,4814,,2016-05-09,0,66,69,1954,2,7888 Fourth Street,35.3,-77.15,14844.0,30265.0,36789.0,814,4,1,538,Visa,Credit,4648780918814877,2020-06-01,520,1,2,7000.0,2005-11-01,2018,Telecommunication Services
101,22032715,2018-10-30 18:32:00,1369,5792,45.45,Swipe Transaction,98648,Fairland,IN,46126.0,5814,,2018-10-30,0,59,67,1961,1,535 Grant Boulevard,39.35,-85.96,17585.0,35854.0,49101.0,850,2,1,1369,Mastercard,Debit,5168890534725782,2024-10-01,731,1,2,14716.0,2003-12-01,2012,Fast Food Restaurants
102,17252125,2016-01-18 04:31:00,33,5529,7.57,Chip Transaction,80665,Carson City,NV,89706.0,5300,,2016-01-18,0,77,71,1942,6,6335 Rose Lane,39.21,-119.71,18239.0,38692.0,8902.0,596,5,1,33,Mastercard,Debit,5059695419276531,2022-03-01,447,1,2,11584.0,2008-11-01,2012,Wholesale Clubs
103,19715938,2017-06-26 21:36:00,356,5279,31.09,Chip Transaction,23415,Stuart,FL,34997.0,5812,,2017-06-26,0,50,73,1969,10,24 River Avenue,27.19,-80.24,20315.0,41420.0,0.0,691,5,1,356,Visa,Debit,4137526666130095,2020-03-01,698,1,2,18395.0,2013-10-01,2013,Eating Places and Restaurants
104,20029415,2017-09-01 06:19:00,1694,5032,26.11,Chip Transaction,20519,Bloomfield,NJ,7003.0,5942,,2017-09-01,0,83,65,1936,3,480 Catherine Drive,41.09,-73.55,37213.0,74753.0,1585.0,726,5,1,1694,Visa,Debit (Prepaid),4932238574894061,2021-01-01,185,1,2,31.0,2005-10-01,2013,Book Stores
105,17899110,2016-06-05 12:55:00,1432,2726,39.2,Chip Transaction,29721,Greenback,TN,37742.0,5813,Insufficient Balance,2016-06-05,0,42,72,1977,8,78 Lexington Street,40.96,-74.61,34205.0,69747.0,80763.0,741,4,0,1432,Mastercard,Debit,5033363979740914,2022-07-01,246,1,2,25740.0,2014-04-01,2014,Drinking Places (Alcoholic Beverages)
106,21908934,2018-10-04 12:55:00,421,4389,1.03,Chip Transaction,14528,Cedar Rapids,IA,52405.0,5499,,2018-10-04,0,53,67,1967,1,595 Valley Stream Drive,41.97,-91.66,22502.0,45876.0,58252.0,790,7,1,421,Mastercard,Debit,5803489621102604,2021-12-01,503,1,1,33070.0,2012-08-01,2012,Miscellaneous Food Stores
107,19627346,2017-06-08 08:30:00,1177,4164,10.4,Chip Transaction,50783,Newark,DE,19713.0,5411,,2017-06-08,0,36,66,1983,3,1644 Park Avenue,39.67,-75.75,31719.0,64672.0,56485.0,695,4,1,1177,Mastercard,Credit,5350464215817716,2024-12-01,315,1,1,26400.0,2005-08-01,2008,"Grocery Stores, Supermarkets"
108,18089117,2016-07-15 21:08:00,891,2141,15.98,Chip Transaction,59292,Van Buren,AR,72956.0,5813,,2016-07-15,0,38,66,1981,10,177 Maple Boulevard,35.44,-94.35,17093.0,34854.0,40722.0,746,5,1,891,Mastercard,Debit,5713930994921001,2023-10-01,41,1,1,16986.0,2007-03-01,2010,Drinking Places (Alcoholic Beverages)
109,21182988,2018-05-03 15:32:00,1648,1187,74.35,Swipe Transaction,32175,Hamlin,NY,14464.0,7538,,2018-05-03,0,66,69,1953,5,211 Valley Street,40.76,-74.59,91180.0,185909.0,461854.0,621,5,1,1648,Mastercard,Debit,5489127405017818,2021-02-01,287,0,2,64565.0,2009-02-01,2019,Automotive Service Shops
110,21941397,2018-10-11 11:18:00,119,5928,87.77,Chip Transaction,60569,Sun Valley,NV,89433.0,5300,,2018-10-11,0,44,67,1975,9,60 Little Creek Avenue,36.16,-115.28,27761.0,56605.0,87970.0,624,3,1,119,Mastercard,Debit,5736601123142270,2022-01-01,145,1,2,13177.0,2008-12-01,2014,Wholesale Clubs
111,17849422,2016-05-25 19:38:00,1145,6011,29.84,Chip Transaction,50604,Appleton,WI,54913.0,5813,,2016-05-25,0,43,65,1977,1,7512 South Boulevard,44.26,-88.39,36825.0,75080.0,35268.0,747,3,1,1145,Mastercard,Debit,5350628456401491,2024-11-01,382,1,1,35169.0,2010-12-01,2012,Drinking Places (Alcoholic Beverages)
112,20056170,2017-09-06 15:44:00,1633,3038,0.9,Swipe Transaction,14528,Mesa,AZ,85204.0,5499,,2017-09-06,0,36,65,1984,1,4172 Federal Drive,33.38,-111.87,21053.0,42927.0,132343.0,687,4,0,1633,Amex,Credit,356560829047775,2020-06-01,388,0,1,15000.0,2010-05-01,2015,Miscellaneous Food Stores
113,19054286,2017-02-06 18:25:00,114,3070,36.6,Chip Transaction,33234,North Hollywood,CA,91606.0,5812,,2017-02-06,0,47,65,1972,12,112 Elm Avenue,34.18,-118.39,16892.0,34441.0,907.0,725,4,1,114,Mastercard,Debit,5471501151275219,2019-01-01,875,1,2,16617.0,2010-05-01,2011,Eating Places and Restaurants
114,20808760,2018-02-13 10:00:00,1875,4167,32.75,Chip Transaction,4094,Grand River,OH,44045.0,7538,,2018-02-13,0,56,69,1963,4,4966 Grant Street,40.89,-81.58,22170.0,45202.0,71022.0,683,4,0,1875,Visa,Debit,4557993037807765,2024-06-01,133,1,1,16566.0,2005-08-01,2009,Automotive Service Shops
115,18136589,2016-07-26 04:58:00,1080,2562,140.08,Online Transaction,17976,ONLINE,,,4900,,2016-07-26,0,56,63,1963,11,4581 Eighth Boulevard,32.19,-83.17,14425.0,29413.0,46043.0,703,2,1,1080,Mastercard,Debit,5657550046539675,2021-06-01,692,1,1,1470.0,2008-04-01,2008,"Utilities - Electric, Gas, Water, Sanitary"
116,20658986,2018-01-12 11:50:00,1184,4202,60.57,Chip Transaction,60569,Livermore,CA,94550.0,5300,,2018-01-12,0,70,74,1950,1,20382 Park Drive,37.56,-121.98,33727.0,68765.0,75608.0,798,5,0,1184,Mastercard,Debit,5091620986065392,2023-11-01,902,1,2,21743.0,2007-08-01,2007,Wholesale Clubs
117,20939281,2018-03-13 03:25:00,1709,3319,52.58,Chip Transaction,67570,Lincoln,NE,68510.0,5311,,2018-03-13,0,62,69,1957,3,628 Third Avenue,40.46,-96.37,17420.0,35519.0,111115.0,744,1,1,1709,Mastercard,Debit,5109330727953243,2023-12-01,947,1,2,13461.0,2006-06-01,2010,Department Stores
118,20523554,2017-12-14 16:57:00,1687,2509,19.29,Online Transaction,16798,ONLINE,,,4121,,2017-12-14,0,70,64,1949,12,469 Grant Lane,35.11,-106.62,24485.0,40189.0,24169.0,621,1,1,1687,Mastercard,Debit,5818461677005751,2022-09-01,826,1,2,2450.0,2006-04-01,2014,Taxicabs and Limousines
119,20693310,2018-01-19 16:00:00,1534,6102,40.98,Chip Transaction,23484,Cherry Hill,NJ,8003.0,7210,,2018-01-19,0,36,65,1983,7,1531 North Lane,39.9,-74.99,39626.0,80794.0,3867.0,803,2,0,1534,Mastercard,Debit,5002425450787708,2024-03-01,269,1,1,27771.0,2014-12-01,2014,Laundry Services
120,17193990,2016-01-05 13:39:00,1453,1117,81.87,Chip Transaction,86563,Parrish,AL,35580.0,5300,,2016-01-05,0,37,73,1982,11,4830 Ocean Drive,33.73,-87.28,17716.0,36122.0,51593.0,641,2,1,1453,Mastercard,Debit,5836173617667136,2024-11-01,80,1,1,14561.0,2007-02-01,2015,Wholesale Clubs
121,20239398,2017-10-15 14:09:00,1712,4342,1.4,Chip Transaction,14528,Dallas,TX,75240.0,5499,,2017-10-15,0,82,65,1938,1,1437 Madison Lane,32.79,-96.76,27814.0,66999.0,3140.0,730,5,1,1712,Visa,Debit,4631337182936138,2024-03-01,847,1,2,18288.0,2010-08-01,2012,Miscellaneous Food Stores
122,20412243,2017-11-21 09:03:00,1629,4290,23.1,Online Transaction,50404,ONLINE,,,4784,,2017-11-21,0,42,63,1977,6,53789 Bayview Street,26.14,-80.13,14430.0,29422.0,58679.0,598,1,1,1629,Mastercard,Debit,5366247073382596,2021-04-01,515,1,2,18776.0,2009-08-01,2012,Tolls and Bridge Fees
123,17554019,2016-03-23 14:39:00,1997,5786,12.63,Chip Transaction,24504,Clear Lake,MN,55319.0,4214,,2016-03-23,0,76,69,1943,8,765 Forest Street,44.92,-93.4,39155.0,38800.0,25867.0,758,7,0,1997,Amex,Credit,373196972571995,2022-08-01,333,1,1,25600.0,2003-12-01,2009,Motor Freight Carriers and Trucking
124,20569804,2017-12-24 14:53:00,1717,363,60.0,Chip Transaction,27092,Buffalo,NY,14219.0,4829,,2017-12-24,0,67,67,1952,7,728 Sixth Avenue,43.06,-78.27,17665.0,43070.0,14135.0,726,4,1,1717,Visa,Debit,4515082319612545,2020-02-01,194,1,1,15934.0,2017-01-01,2017,Money Transfer
125,20485417,2017-12-06 15:38:00,511,1038,10.94,Chip Transaction,75781,Tucson,AZ,85711.0,5411,,2017-12-06,0,66,68,1953,10,153 Tenth Lane,32.21,-110.88,17460.0,35602.0,55369.0,661,5,0,511,Visa,Credit,4150093118072730,2022-06-01,135,1,2,6100.0,2004-02-01,2009,"Grocery Stores, Supermarkets"
126,18523640,2016-10-16 15:41:00,1075,4761,108.36,Chip Transaction,75781,Georgetown,KY,40324.0,5411,,2016-10-16,0,36,67,1983,12,5695 Fifth Street,38.22,-85.74,25258.0,51500.0,102286.0,672,3,1,1075,Mastercard,Credit,5089768442116305,2023-07-01,686,1,2,11200.0,2010-09-01,2010,"Grocery Stores, Supermarkets"
127,18262321,2016-08-21 20:03:00,1904,1004,71.0,Chip Transaction,59935,Mcalester,OK,74501.0,5499,,2016-08-21,0,69,70,1951,2,5844 Littlewood Street,35.95,-95.38,15195.0,30983.0,10019.0,757,5,0,1904,Mastercard,Debit,5660745375245497,2022-07-01,27,1,1,7597.0,2002-02-01,2005,Miscellaneous Food Stores
128,20376607,2017-11-13 17:14:00,206,3053,2.81,Chip Transaction,38602,Wyoming,MI,49519.0,5311,,2017-11-13,0,28,59,1992,2,4633 Sixth Avenue,42.89,-85.72,18431.0,37583.0,51633.0,782,2,1,206,Mastercard,Credit,5817132520514792,2024-01-01,425,1,1,11300.0,2010-05-01,2011,Department Stores
129,21171908,2018-05-01 10:53:00,671,5592,102.09,Chip Transaction,26593,Blytheville,AR,72315.0,5300,,2018-05-01,0,37,66,1982,4,363 Main Lane,35.93,-89.92,16689.0,34032.0,68762.0,769,2,1,671,Visa,Credit,4711870612941812,2024-05-01,453,1,1,8700.0,2009-11-01,2009,Wholesale Clubs
130,22172261,2018-11-29 10:33:00,538,5441,37.69,Chip Transaction,43293,Vanceboro,NC,28586.0,5499,,2018-11-29,0,66,69,1954,2,7888 Fourth Street,35.3,-77.15,14844.0,30265.0,36789.0,814,4,1,538,Visa,Credit,4648780918814877,2020-06-01,520,1,2,7000.0,2005-11-01,2018,Miscellaneous Food Stores
131,17341930,2016-02-06 10:01:00,1299,3263,14.37,Chip Transaction,93006,Hope,IN,47246.0,5921,,2016-02-06,0,40,70,1979,11,2578 Park Boulevard,39.29,-85.76,18295.0,37299.0,31923.0,723,2,1,1299,Visa,Credit,4515199158031467,2021-10-01,329,1,2,8800.0,2003-06-01,2016,"Package Stores, Beer, Wine, Liquor"
132,18017744,2016-06-30 14:44:00,1279,5472,59.13,Chip Transaction,50783,Novi,MI,48377.0,5411,,2016-06-30,0,78,65,1941,7,22 East Avenue,42.47,-83.49,34259.0,62103.0,33545.0,509,4,0,1279,Visa,Debit,4692480656224077,2022-03-01,281,1,2,26743.0,2006-11-01,2013,"Grocery Stores, Supermarkets"
133,17687731,2016-04-21 09:01:00,1267,3802,100.0,Chip Transaction,27092,Issaquah,WA,98027.0,4829,,2016-04-21,0,81,65,1938,10,9574 Ocean Drive,47.83,-122.32,28248.0,31912.0,2182.0,630,4,1,1267,Mastercard,Debit,5835780437577400,2022-01-01,844,1,2,11108.0,2007-07-01,2015,Money Transfer
134,20936584,2018-03-12 11:54:00,754,4122,11.06,Chip Transaction,55060,Florence,SC,29503.0,5812,,2018-03-12,0,76,69,1943,3,15 Elm Lane,33.69,-78.89,19025.0,32817.0,27209.0,705,6,1,754,Visa,Debit,4818819509291187,2022-03-01,727,1,2,2898.0,2003-08-01,2008,Eating Places and Restaurants
135,19285556,2017-03-28 05:37:00,1437,4385,9.2,Chip Transaction,55060,Belfair,WA,98528.0,5812,,2017-03-28,0,77,65,1942,4,456 Birch Lane,47.43,-122.92,19640.0,44807.0,13730.0,751,4,1,1437,Visa,Credit,4504840142387818,2023-07-01,344,1,1,11400.0,2011-08-01,2019,Eating Places and Restaurants
136,22204703,2018-12-06 09:05:00,1794,5205,177.95,Online Transaction,61641,ONLINE,,,4900,,2018-12-06,0,49,58,1970,12,469 Catherine Avenue,29.45,-98.5,36852.0,75137.0,175263.0,631,1,0,1794,Mastercard,Debit,5320717372996306,2024-07-01,264,1,2,4392.0,2010-10-01,2017,"Utilities - Electric, Gas, Water, Sanitary"
137,21795645,2018-09-10 11:00:00,1962,2594,120.0,Chip Transaction,27092,Naperville,IL,60540.0,4829,,2018-09-10,0,34,68,1985,9,2066 Ninth Lane,41.8,-87.92,45307.0,92375.0,156949.0,712,5,0,1962,Visa,Debit,4452357307336469,2021-07-01,260,1,1,42176.0,2008-04-01,2008,Money Transfer
138,18100268,2016-07-18 09:56:00,346,2176,90.97,Swipe Transaction,48158,Santa Barbara,CA,93103.0,7230,,2016-07-18,0,90,74,1929,11,495 Ocean View Lane,34.43,-119.68,25249.0,48580.0,1785.0,687,7,1,346,Mastercard,Debit,5594299457198901,2023-10-01,782,1,2,2883.0,2008-03-01,2015,Beauty and Barber Shops
139,18900540,2017-01-05 02:35:00,1305,1260,28.55,Chip Transaction,3668,Millington,TN,38053.0,5912,,2017-01-05,0,46,73,1974,2,2794 Seventh Drive,35.33,-89.88,19115.0,38971.0,0.0,784,3,1,1305,Visa,Debit,4804168677193110,2023-03-01,32,1,2,22025.0,2010-02-01,2010,Drug Stores and Pharmacies
140,19140927,2017-02-25 06:15:00,1852,28,10.57,Chip Transaction,75936,Chandler,AZ,85226.0,5814,,2017-02-25,0,57,75,1962,12,41011 Seventh Boulevard,33.27,-111.94,32056.0,65357.0,21844.0,685,4,0,1852,Visa,Debit,4013876625955765,2023-10-01,543,1,2,36425.0,2002-01-01,2004,Fast Food Restaurants
141,19259727,2017-03-22 12:56:00,871,2082,136.42,Chip Transaction,1102,Detroit,MI,48235.0,8049,,2017-03-22,0,86,71,1933,5,81 Hill Avenue,42.38,-83.1,13820.0,22650.0,0.0,690,6,1,871,Mastercard,Credit,5025018096886549,2024-07-01,783,1,1,8600.0,2005-03-01,2007,Podiatrists
142,18813796,2016-12-17 13:06:00,150,2852,65.0,Chip Transaction,43293,Alexandria,VA,22305.0,5499,,2016-12-17,0,51,73,1968,8,2897 West Street,38.7,-77.24,35062.0,71490.0,0.0,782,3,1,150,Discover,Credit,6252296592576200,2020-05-01,976,1,3,22400.0,2004-05-01,2015,Miscellaneous Food Stores
143,20690366,2018-01-19 07:13:00,659,5658,2.11,Swipe Transaction,8797,Mitchell,IN,47446.0,5912,,2018-01-19,0,57,67,1962,5,5079 Sussex Avenue,38.73,-86.47,15981.0,32583.0,12501.0,812,7,0,659,Visa,Debit,4494703150961667,2021-02-01,363,1,1,10538.0,2011-11-01,2011,Drug Stores and Pharmacies
144,18941966,2017-01-13 17:01:00,586,3124,55.59,Swipe Transaction,75441,Asheville,NC,28804.0,5812,,2017-01-13,0,37,63,1983,2,372 12th Boulevard,35.57,-82.54,22983.0,46864.0,58954.0,751,4,0,586,Visa,Debit,4957920148379718,2022-11-01,577,1,1,30952.0,2012-05-01,2012,Eating Places and Restaurants
145,20579814,2017-12-26 15:31:00,450,4192,128.97,Chip Transaction,69562,Newport News,VA,23602.0,8011,,2017-12-26,0,39,66,1980,9,253 Lexington Avenue,37.07,-76.51,21186.0,43192.0,33517.0,739,3,0,450,Visa,Debit,4672018031116294,2021-11-01,314,1,1,18048.0,2006-08-01,2007,"Doctors, Physicians"
146,21389555,2018-06-16 13:33:00,1882,3229,84.82,Chip Transaction,31893,Union City,CA,94587.0,5311,,2018-06-16,0,58,65,1961,10,860 Maple Avenue,37.59,-122.06,29097.0,59322.0,145137.0,694,3,0,1882,Visa,Debit,4848394515179455,2024-01-01,918,1,1,35943.0,2001-06-01,2009,Department Stores
147,20517901,2017-12-13 14:28:00,1910,4615,152.73,Chip Transaction,34956,Bradenton,FL,34203.0,4900,,2017-12-13,0,49,59,1970,5,710 North Lane,27.48,-82.57,17590.0,35868.0,48465.0,562,4,0,1910,Visa,Debit,4101200741078800,2020-06-01,810,1,2,8562.0,2006-09-01,2008,"Utilities - Electric, Gas, Water, Sanitary"
148,22079946,2018-11-09 16:13:00,951,2628,76.0,Chip Transaction,59935,Compton,CA,90222.0,5499,,2018-11-09,0,57,66,1962,9,381 Catherine Avenue,33.91,-118.23,13075.0,26664.0,12241.0,709,4,1,951,Amex,Credit,371780853319378,2021-06-01,461,1,2,11000.0,2010-04-01,2010,Miscellaneous Food Stores
149,19517990,2017-05-16 08:33:00,197,1302,13.19,Chip Transaction,86206,Winchester,KY,40391.0,7349,,2017-05-16,0,32,60,1987,5,1867 Bayview Street,37.86,-84.65,15757.0,32128.0,58373.0,724,5,0,197,Mastercard,Debit,5237861402927606,2022-01-01,536,1,1,17889.0,2012-02-01,2012,Cleaning and Maintenance Services
150,22039564,2018-11-01 09:01:00,148,5851,15.63,Chip Transaction,83480,Center Barnstead,NH,3225.0,9402,,2018-11-01,0,62,66,1957,8,7378 Park Lane,43.6,-71.74,18972.0,38681.0,113190.0,663,5,0,148,Discover,Credit,6125621291819591,2021-04-01,423,1,1,17400.0,2006-12-01,2009,Postal Services - Government Only
151,17905029,2016-06-06 16:11:00,711,4689,22.37,Chip Transaction,63992,Staunton,IL,62088.0,5300,,2016-06-06,0,39,60,1980,10,6757 Eighth Avenue,39.01,-89.78,20056.0,40894.0,51844.0,657,1,0,711,Visa,Debit,4460024958657540,2020-01-01,704,1,2,9562.0,2008-09-01,2011,Wholesale Clubs
152,21442987,2018-06-27 22:42:00,416,1220,32.26,Chip Transaction,74922,Nashville,TN,37211.0,5411,,2018-06-27,0,86,65,1933,8,5220 Lincoln Street,36.17,-86.78,20030.0,38273.0,1658.0,765,6,1,416,Mastercard,Debit,5587024233247132,2022-11-01,531,1,2,14066.0,2010-02-01,2012,"Grocery Stores, Supermarkets"
153,19782235,2017-07-10 18:33:00,763,4993,19.87,Online Transaction,16798,ONLINE,,,4121,,2017-07-10,0,35,61,1985,1,583 Seventh Street,39.99,-75.27,50579.0,103126.0,130160.0,642,1,0,763,Visa,Credit,4000393241453107,2021-10-01,408,1,2,24300.0,2003-10-01,2007,Taxicabs and Limousines
154,17496037,2016-03-11 06:50:00,647,5294,9.72,Chip Transaction,43293,Dinuba,CA,93618.0,5499,,2016-03-11,0,31,72,1988,7,27 Birch Avenue,36.52,-119.39,13194.0,26900.0,74083.0,758,2,1,647,Mastercard,Debit,5777074368748266,2018-07-01,895,1,2,15512.0,2014-10-01,2014,Miscellaneous Food Stores
155,20651000,2018-01-10 16:57:00,643,5597,43.81,Chip Transaction,32858,South Ozone Park,NY,11420.0,5311,,2018-01-10,0,29,65,1991,1,892 Spruce Street,40.69,-73.75,21283.0,43397.0,42168.0,697,2,1,643,Mastercard,Credit,5079302523329059,2023-04-01,381,1,2,500.0,2010-11-01,2010,Department Stores
156,20412427,2017-11-21 09:38:00,1808,1184,23.44,Online Transaction,41122,ONLINE,,,4784,,2017-11-21,0,31,69,1988,8,1415 Sixth Street,32.02,-102.1,17329.0,35331.0,55566.0,697,4,1,1808,Mastercard,Debit,5651004451380046,2022-04-01,421,1,2,12736.0,2009-02-01,2014,Tolls and Bridge Fees
157,18967875,2017-01-19 10:35:00,60,4544,124.23,Chip Transaction,60569,Elmira,NY,14905.0,5300,,2017-01-19,0,47,64,1972,8,467 Birch Avenue,43.23,-77.06,16703.0,34057.0,59247.0,655,4,1,60,Visa,Credit,4372866189717850,2020-11-01,785,1,2,6400.0,2003-09-01,2010,Wholesale Clubs
158,17353107,2016-02-08 14:28:00,1855,3021,80.2,Chip Transaction,60569,San Jose,CA,95125.0,5300,,2016-02-08,0,67,66,1952,3,1 Burns Lane,37.3,-121.8,25115.0,31287.0,25844.0,728,4,0,1855,Visa,Credit,4355832454848293,2020-08-01,490,1,3,13400.0,2009-05-01,2011,Wholesale Clubs
159,19859625,2017-07-27 07:03:00,1382,2838,59.23,Chip Transaction,59935,Dallas,TX,75254.0,5499,,2017-07-27,0,58,65,1961,7,16 Eighth Lane,32.79,-96.76,12693.0,25883.0,44404.0,706,4,0,1382,Mastercard,Debit,5947766191531250,2024-10-01,760,1,2,11415.0,2003-05-01,2013,Miscellaneous Food Stores
160,21339625,2018-06-06 06:51:00,851,3613,3.7,Swipe Transaction,9307,Shelbyville,KY,40065.0,5411,,2018-06-06,0,88,65,1931,10,42 Fourth Avenue,38.21,-85.23,19620.0,31399.0,2528.0,757,4,1,851,Visa,Credit,4453479289853591,2020-01-01,438,1,2,8100.0,2016-06-01,2016,"Grocery Stores, Supermarkets"
161,21589551,2018-07-28 16:47:00,1256,6116,159.14,Chip Transaction,51300,Oslo,Norway,,3359,,2018-07-28,0,37,68,1982,9,1723 North Lane,41.2,-73.13,27589.0,56248.0,149587.0,728,4,0,1256,Visa,Credit,4888697499810645,2020-01-01,276,1,2,18500.0,2015-12-01,2015,Non-Ferrous Metal Foundries
162,22095513,2018-11-13 06:34:00,1535,3461,29.15,Online Transaction,88459,ONLINE,,,5311,,2018-11-13,0,59,64,1960,8,8 Pine Street,38.87,-82.99,16336.0,33311.0,65822.0,590,2,0,1535,Visa,Credit,4086767707930248,2019-06-01,906,1,2,9200.0,2009-06-01,2009,Department Stores
163,20727841,2018-01-26 22:35:00,822,5385,18.66,Chip Transaction,44958,Chula Vista,CA,91911.0,7832,,2018-01-26,0,51,68,1968,4,6323 Sussex Boulevard,32.61,-117.03,16942.0,34540.0,22641.0,793,5,1,822,Mastercard,Credit,5615660494634705,2021-11-01,865,1,2,8000.0,2003-11-01,2008,Motion Picture Theaters
164,19860191,2017-07-27 08:42:00,1659,3540,39.28,Online Transaction,16798,ONLINE,,,4121,,2017-07-27,0,94,65,1926,1,4570 Valley Stream Lane,42.26,-88.13,28147.0,40787.0,1574.0,782,6,1,1659,Visa,Credit,4445565501557714,2020-09-01,474,1,2,12700.0,2011-06-01,2011,Taxicabs and Limousines
165,20275039,2017-10-23 09:19:00,1463,3591,1.09,Chip Transaction,14528,Kerhonkson,NY,12446.0,5499,,2017-10-23,0,80,69,1940,1,221 Catherine Boulevard,42.15,-74.53,14515.0,9766.0,66.0,732,4,1,1463,Mastercard,Debit,5462773776307346,2021-02-01,951,1,2,22357.0,2015-06-01,2015,Miscellaneous Food Stores
166,21748445,2018-08-31 11:11:00,1699,2642,14.69,Chip Transaction,57758,San Jose,CA,95134.0,4121,,2018-08-31,0,67,65,1953,1,9205 Summit Street,37.42,-121.94,51631.0,52929.0,37514.0,737,7,1,1699,Mastercard,Debit (Prepaid),5899056864789405,2020-01-01,49,1,1,70.0,2010-04-01,2010,Taxicabs and Limousines
167,18673345,2016-11-17 13:07:00,1567,3956,100.0,Swipe Transaction,27092,Binghamton,NY,13903.0,4829,,2016-11-17,0,43,68,1976,8,7874 Wessex Street,42.1,-76.26,19901.0,40576.0,54011.0,747,2,1,1567,Visa,Debit,4866682990431119,2023-10-01,818,1,1,24302.0,2010-07-01,2010,Money Transfer
168,19331971,2017-04-06 16:52:00,331,3818,64.0,Chip Transaction,22204,Andrews,SC,29510.0,5541,,2017-04-06,0,34,68,1985,6,30 Catherine Street,33.44,-79.56,14669.0,29907.0,16764.0,732,2,0,331,Mastercard,Debit,5949441299547681,2021-01-01,269,1,1,12801.0,2007-07-01,2011,Service Stations
169,22089100,2018-11-11 14:38:00,1585,2721,42.89,Chip Transaction,32175,Jacksonville,FL,32222.0,7538,,2018-11-11,0,35,69,1984,11,4346 El Camino Boulevard,30.33,-81.65,20710.0,42229.0,0.0,688,3,1,1585,Visa,Debit,4535134357521443,2022-03-01,877,1,2,19197.0,2013-04-01,2013,Automotive Service Shops
170,21922766,2018-10-07 10:51:00,39,2039,289.23,Chip Transaction,90171,Old Saybrook,CT,6475.0,4900,,2018-10-07,0,54,67,1965,5,984 Eighth Avenue,41.29,-72.36,30281.0,61740.0,126015.0,583,2,1,39,Visa,Credit,4877727463431062,2023-01-01,537,1,2,16900.0,2002-03-01,2007,"Utilities - Electric, Gas, Water, Sanitary"
171,19210808,2017-03-11 20:50:00,868,5565,14.22,Chip Transaction,45516,Nashville,TN,37207.0,5921,,2017-03-11,0,78,64,1941,11,5004 Lake Street,35.46,-97.51,16016.0,31046.0,11436.0,706,6,0,868,Mastercard,Debit (Prepaid),5680583752844424,2022-02-01,504,1,2,49.0,2009-11-01,2009,"Package Stores, Beer, Wine, Liquor"
172,19210893,2017-03-11 21:31:00,1989,2984,58.06,Online Transaction,16798,ONLINE,,,4121,,2017-03-11,0,31,66,1988,12,3487 Bayview Drive,38.81,-76.75,33295.0,67886.0,7137.0,803,4,0,1989,Visa,Debit,4556637634817262,2023-03-01,126,1,2,16293.0,2008-05-01,2009,Taxicabs and Limousines
173,19628840,2017-06-08 12:57:00,509,4588,17.86,Chip Transaction,69972,Huntington,WV,25705.0,5814,,2017-06-08,0,33,66,1986,7,239 Sussex Drive,38.41,-82.43,21842.0,44534.0,107410.0,702,4,0,509,Visa,Debit,4262181069766792,2022-07-01,519,1,1,12721.0,2005-09-01,2015,Fast Food Restaurants
174,17971182,2016-06-20 16:27:00,1029,3471,1.25,Swipe Transaction,70625,Mulberry,FL,33860.0,5300,,2016-06-20,0,66,72,1953,3,9218 Martin Luther King Avenue,27.9,-81.97,17944.0,36589.0,86573.0,676,3,0,1029,Mastercard,Debit,5986920336497205,2023-09-01,114,0,2,15894.0,2010-06-01,2010,Wholesale Clubs
175,21988848,2018-10-21 11:26:00,252,3675,53.3,Chip Transaction,95863,Butler,OH,44822.0,5621,,2018-10-21,0,67,70,1953,1,127 Grant Street,40.58,-82.42,17161.0,34985.0,29409.0,723,6,0,252,Mastercard,Credit,5167343609558637,2024-10-01,394,1,1,10700.0,2002-07-01,2013,Women's Ready-To-Wear Stores
176,20697388,2018-01-20 13:18:00,1558,3750,43.42,Chip Transaction,42272,Hinsdale,MA,1235.0,5300,,2018-01-20,0,47,65,1973,2,675 Little Creek Drive,40.64,-73.94,25172.0,51330.0,106161.0,597,2,1,1558,Visa,Debit,4836616684752344,2021-07-01,399,1,2,10182.0,2005-07-01,2011,Wholesale Clubs
177,18377329,2016-09-15 10:44:00,118,2792,13.96,Chip Transaction,20561,Birmingham,AL,35213.0,5912,,2016-09-15,0,56,68,1963,12,407 Seventh Lane,33.52,-86.79,15471.0,31533.0,42315.0,753,3,1,118,Discover,Credit,6987061746149197,2024-11-01,75,1,1,6700.0,1997-05-01,2016,Drug Stores and Pharmacies
178,19041464,2017-02-03 23:14:00,1153,2021,19.59,Chip Transaction,30192,Miami,FL,33165.0,5813,,2017-02-03,0,63,62,1956,4,690 Catherine Street,39.69,-104.81,24849.0,58006.0,20196.0,774,1,0,1153,Mastercard,Debit (Prepaid),5026167712266475,2024-09-01,271,1,2,64.0,2001-03-01,2006,Drinking Places (Alcoholic Beverages)
179,17498935,2016-03-11 17:07:00,614,4002,0.0,Chip Transaction,27092,Gastonia,NC,28056.0,4829,,2016-03-11,0,84,66,1935,9,129 Sussex Street,35.4,-80.59,20570.0,16430.0,2873.0,779,7,1,614,Mastercard,Debit,5953826141797560,2024-07-01,781,1,1,19508.0,2012-07-01,2012,Money Transfer
180,21660577,2018-08-12 18:10:00,114,5283,20.43,Chip Transaction,75936,North Hollywood,CA,91606.0,5814,,2018-08-12,0,47,65,1972,12,112 Elm Avenue,34.18,-118.39,16892.0,34441.0,907.0,725,4,1,114,Visa,Debit,4997086356987452,2023-03-01,106,1,2,10676.0,2013-10-01,2013,Fast Food Restaurants
181,22305108,2018-12-27 11:31:00,1144,5153,24.33,Chip Transaction,36934,Houston,TX,77086.0,7538,,2018-12-27,0,57,66,1962,12,545 Eighth Avenue,29.76,-95.38,14959.0,30495.0,70825.0,773,4,1,1144,Mastercard,Debit,5270047889650775,2024-09-01,586,1,2,16109.0,2009-10-01,2009,Automotive Service Shops
182,19302058,2017-03-31 12:00:00,947,276,23.3,Chip Transaction,50783,Clearwater,FL,33764.0,5411,,2017-03-31,0,63,71,1956,9,4117 Fifth Avenue,40.64,-73.94,16985.0,34637.0,12623.0,710,4,0,947,Mastercard,Debit (Prepaid),5337242427884909,2020-07-01,389,1,2,79.0,2011-01-01,2011,"Grocery Stores, Supermarkets"
183,18969065,2017-01-19 13:58:00,402,2536,30.71,Online Transaction,39021,ONLINE,,,4784,,2017-01-19,0,47,72,1972,6,77931 Lincoln Avenue,33.83,-83.89,21556.0,43954.0,60913.0,744,3,0,402,Mastercard,Debit,5332075103527991,2022-10-01,561,1,2,20230.0,2007-04-01,2010,Tolls and Bridge Fees
184,18064674,2016-07-10 16:30:00,1258,206,8.6,Chip Transaction,81833,Mira Loma,CA,91752.0,5912,,2016-07-10,0,79,65,1940,5,265 Little Creek Street,33.99,-117.53,19851.0,15470.0,15349.0,789,7,1,1258,Mastercard,Debit (Prepaid),5777252404670457,2023-12-01,26,1,1,65.0,2009-01-01,2009,Drug Stores and Pharmacies
185,22121935,2018-11-18 14:35:00,1852,2632,83.0,Chip Transaction,61195,Tucson,AZ,85710.0,5541,,2018-11-18,0,57,75,1962,12,41011 Seventh Boulevard,33.27,-111.94,32056.0,65357.0,21844.0,685,4,0,1852,Mastercard,Credit,5911319900289832,2021-04-01,37,1,2,21600.0,2010-04-01,2010,Service Stations
186,19016197,2017-01-29 14:26:00,1224,3874,97.11,Chip Transaction,50867,College Park,MD,20740.0,5541,,2017-01-29,0,42,66,1977,9,763 Lexington Avenue,38.99,-76.93,26224.0,53464.0,20683.0,751,4,0,1224,Visa,Credit,4549441380872550,2022-03-01,975,1,2,15700.0,2008-07-01,2011,Service Stations
187,19266851,2017-03-24 02:00:00,1787,2228,5.02,Chip Transaction,75781,Lexington,KY,40509.0,5411,,2017-03-24,0,52,66,1967,9,417 Hill Lane,38.04,-84.45,28583.0,58278.0,51539.0,689,6,1,1787,Mastercard,Debit,5686962857502766,2022-06-01,257,1,1,27590.0,2009-03-01,2010,"Grocery Stores, Supermarkets"
188,18859368,2016-12-27 08:31:00,566,4547,11.17,Chip Transaction,11435,Holly,MI,48442.0,5812,,2016-12-27,0,60,67,1959,10,8179 Valley Stream Drive,42.79,-83.62,22680.0,46244.0,108449.0,814,5,1,566,Amex,Credit,304564349597311,2024-11-01,170,1,2,12700.0,2004-09-01,2008,Eating Places and Restaurants
189,22003120,2018-10-24 13:09:00,419,3587,19.49,Chip Transaction,51846,Murphys,CA,95247.0,5411,,2018-10-24,0,60,66,1959,11,933 Valley Lane,38.14,-120.45,16448.0,33540.0,74530.0,734,5,0,419,Visa,Debit,4298987544338030,2020-03-01,757,1,1,16731.0,2014-06-01,2014,"Grocery Stores, Supermarkets"
190,17566941,2016-03-26 13:08:00,846,3443,14.59,Chip Transaction,83271,Omaha,NE,68164.0,4214,,2016-03-26,0,48,66,1971,11,58 Catherine Drive,41.26,-96.01,33232.0,67761.0,0.0,745,4,1,846,Visa,Credit,4518067619451768,2020-06-01,429,1,2,0.0,2009-06-01,2011,Motor Freight Carriers and Trucking
191,21361452,2018-06-10 14:05:00,688,6106,99.24,Chip Transaction,34426,Ogden,UT,84414.0,5912,,2018-06-10,0,44,67,1975,3,5125 Elm Drive,41.31,-111.96,23165.0,47227.0,151030.0,760,4,0,688,Mastercard,Debit,5708150083756692,2023-04-01,824,1,1,17848.0,2015-12-01,2015,Drug Stores and Pharmacies
192,18554732,2016-10-23 11:06:00,13,4270,4.01,Chip Transaction,20561,Hardinsburg,KY,40143.0,5912,,2016-10-23,0,52,61,1967,6,4222 Ocean View Drive,37.89,-85.96,15879.0,32378.0,65919.0,588,4,1,13,Visa,Debit (Prepaid),4191204010061938,2023-11-01,495,1,2,64.0,2008-08-01,2012,Drug Stores and Pharmacies
193,19118212,2017-02-20 10:50:00,803,4882,44.96,Swipe Transaction,34490,Waterford,CA,95386.0,5719,,2017-02-20,0,69,73,1951,2,55 El Camino Boulevard,37.53,-120.84,22799.0,46487.0,57336.0,635,3,1,803,Mastercard,Debit,5918188974230799,2021-01-01,670,1,1,20552.0,2015-09-01,2015,Miscellaneous Home Furnishing Stores
194,20663050,2018-01-13 09:45:00,1772,5918,9.96,Chip Transaction,26810,Rancho Cucamonga,CA,91730.0,5541,,2018-01-13,0,47,70,1972,10,9070 West Street,34.09,-117.58,24603.0,50163.0,97188.0,761,4,0,1772,Visa,Credit,4148318094287271,2020-12-01,313,1,2,12800.0,2007-12-01,2009,Service Stations
195,17398065,2016-02-18 08:01:00,319,248,74.42,Chip Transaction,20561,Fresno,CA,93727.0,5912,,2016-02-18,0,67,67,1952,12,388 Third Avenue,36.75,-119.67,17683.0,28357.0,10400.0,628,2,0,319,Visa,Credit,4086497597276972,2021-03-01,383,1,2,6800.0,2010-01-01,2010,Drug Stores and Pharmacies
196,21606933,2018-08-01 12:58:00,1727,5982,-55.0,Swipe Transaction,61195,Columbia,SC,29229.0,5541,,2018-08-01,0,46,67,1973,10,31 Oak Avenue,34.0,-81.03,23917.0,48762.0,143208.0,771,6,1,1727,Visa,Debit,4475380884726150,2024-06-01,972,1,1,24230.0,2009-12-01,2011,Service Stations
197,20565904,2017-12-23 15:53:00,161,3096,61.27,Chip Transaction,60569,Houston,TX,77021.0,5300,,2017-12-23,0,31,70,1988,11,237 Hill Lane,31.56,-97.18,11512.0,23469.0,22976.0,731,3,0,161,Mastercard,Debit,5018191731735773,2024-02-01,889,1,1,13612.0,2011-05-01,2011,Wholesale Clubs
198,20378200,2017-11-14 06:53:00,1314,1140,3.26,Swipe Transaction,98648,New Braunfels,TX,78130.0,5814,,2017-11-14,0,43,70,1976,11,857 Jefferson Avenue,29.7,-98.11,19325.0,39404.0,71859.0,723,5,0,1314,Mastercard,Debit,5283924863850626,2022-03-01,447,0,2,14664.0,2008-02-01,2010,Fast Food Restaurants
199,20125238,2017-09-21 10:28:00,177,3653,-83.0,Chip Transaction,59935,Memphis,TN,38104.0,5499,,2017-09-21,0,54,66,1965,12,294 Bayview Lane,35.1,-90.0,28570.0,58248.0,107130.0,728,4,1,177,Mastercard,Debit,5764898909630971,2020-04-01,255,1,2,25392.0,1998-07-01,2014,Miscellaneous Food Stores
200,17251900,2016-01-17 23:30:00,479,2436,0.99,Swipe Transaction,14528,Pasadena,MD,21122.0,5499,,2016-01-17,0,57,69,1962,10,936 12th Street,39.11,-76.55,30004.0,61173.0,71422.0,692,3,0,479,Visa,Debit,4262606931655715,2021-01-01,44,1,2,3058.0,2002-04-01,2013,Miscellaneous Food Stores
201,21144651,2018-04-25 13:13:00,461,1209,9.11,Chip Transaction,87625,Shreveport,LA,71106.0,5812,,2018-04-25,0,42,68,1977,12,28 Hillside Boulevard,42.3,-83.48,32078.0,65403.0,80057.0,784,4,1,461,Mastercard,Debit,5033135709911480,2024-07-01,170,1,1,23344.0,2010-02-01,2010,Eating Places and Restaurants
202,18191855,2016-08-06 19:49:00,349,2520,28.38,Chip Transaction,44129,Orrville,OH,44667.0,7349,,2016-08-06,0,40,61,1979,12,1943 Birch Street,40.84,-81.63,21201.0,43229.0,96831.0,685,2,1,349,Visa,Credit,4957171481250708,2023-08-01,860,1,2,3600.0,2006-04-01,2006,Cleaning and Maintenance Services
203,17208682,2016-01-08 16:22:00,1901,2158,42.83,Chip Transaction,43293,Saint Johns,MI,48879.0,5499,,2016-01-08,0,63,69,1956,3,292 First Avenue,43.69,-84.76,16542.0,33728.0,107287.0,730,3,1,1901,Visa,Debit (Prepaid),4693399280462586,2023-07-01,216,1,2,59.0,2007-03-01,2015,Miscellaneous Food Stores
204,18571946,2016-10-26 22:10:00,1133,5211,-431.0,Chip Transaction,13348,ONLINE,,,4722,,2016-10-26,0,30,66,1989,10,781 Federal Street,43.11,-77.8,22855.0,46599.0,12700.0,684,4,1,1133,Visa,Debit,4332848097947146,2019-05-01,247,1,2,12512.0,2010-10-01,2012,Travel Agencies
205,21301591,2018-05-29 00:01:00,86,3178,41.32,Online Transaction,39021,ONLINE,,,4784,,2018-05-29,0,24,65,1995,6,7675 Main Boulevard,33.0,-81.3,11384.0,23212.0,25138.0,799,3,0,86,Mastercard,Debit,5738889921774670,2019-06-01,261,1,2,12490.0,2016-05-01,2016,Tolls and Bridge Fees
206,17554347,2016-03-23 15:44:00,1983,2907,119.28,Chip Transaction,26810,Laguna Beach,CA,92651.0,5541,,2016-03-23,0,50,67,1969,3,655 George Boulevard,33.55,-117.78,69236.0,141161.0,0.0,773,3,0,1983,Mastercard,Credit,5268892141706910,2023-03-01,905,1,1,51900.0,2006-05-01,2009,Service Stations
207,18503562,2016-10-12 10:42:00,1805,2546,4.85,Swipe Transaction,86013,Cedarville,MI,49719.0,5912,,2016-10-12,0,38,68,1981,5,679 Bayview Lane,45.99,-84.36,13053.0,26613.0,17008.0,718,2,0,1805,Mastercard,Credit,5541745788882180,2022-02-01,58,0,1,3800.0,2007-04-01,2007,Drug Stores and Pharmacies
208,17630274,2016-04-09 03:09:00,895,1116,37.26,Chip Transaction,34490,Fontana,CA,92335.0,5719,,2016-04-09,0,46,70,1973,8,9503 South Street,34.23,-116.86,15515.0,31632.0,76538.0,832,3,1,895,Mastercard,Debit (Prepaid),5490867691921019,2018-10-01,222,1,2,49.0,2007-02-01,2017,Miscellaneous Home Furnishing Stores
209,21411038,2018-06-21 08:11:00,862,3167,17.36,Online Transaction,18563,ONLINE,,,4121,,2018-06-21,0,25,67,1995,1,8482 Elm Lane,32.42,-96.67,21032.0,42883.0,65917.0,807,3,1,862,Mastercard,Credit,5170494527481348,2022-05-01,731,0,1,3800.0,2015-05-01,2015,Taxicabs and Limousines
210,18613354,2016-11-04 18:24:00,1490,5950,120.0,Swipe Transaction,27092,Louisville,CO,80027.0,4829,,2016-11-04,0,30,69,1989,4,145 Spruce Street,39.86,-104.86,20522.0,41839.0,46226.0,761,4,1,1490,Visa,Credit,4751967279477590,2021-11-01,581,0,1,11400.0,2008-12-01,2008,Money Transfer
211,22282589,2018-12-22 15:40:00,1901,3846,-78.0,Swipe Transaction,49789,Rosebush,MI,48878.0,5541,,2018-12-22,0,63,69,1956,3,292 First Avenue,43.69,-84.76,16542.0,33728.0,107287.0,730,3,1,1901,Mastercard,Debit,5584237915645568,2023-08-01,278,0,2,6384.0,2008-07-01,2017,Service Stations
212,21218833,2018-05-11 09:32:00,733,3091,100.0,Chip Transaction,27092,Las Vegas,NV,89118.0,4829,,2018-05-11,0,36,68,1983,7,895 Lexington Lane,31.49,-97.23,26061.0,53138.0,153374.0,606,4,0,733,Mastercard,Debit,5904146428140246,2020-12-01,277,1,2,2656.0,2011-05-01,2015,Money Transfer
213,19538653,2017-05-20 11:27:00,1511,3357,13.17,Chip Transaction,5154,Madison,WI,53716.0,5812,,2017-05-20,0,43,66,1977,1,18 Norfolk Boulevard,43.07,-89.38,23680.0,48279.0,114254.0,719,2,0,1511,Visa,Debit,4725438629956463,2022-06-01,675,1,1,24806.0,2007-06-01,2007,Eating Places and Restaurants
214,18790461,2016-12-12 12:57:00,1369,5792,31.27,Chip Transaction,59935,Greenfield,IN,46140.0,5499,,2016-12-12,0,59,67,1961,1,535 Grant Boulevard,39.35,-85.96,17585.0,35854.0,49101.0,850,2,1,1369,Mastercard,Debit,5168890534725782,2024-10-01,731,1,2,14716.0,2003-12-01,2012,Miscellaneous Food Stores
215,20758212,2018-02-02 12:03:00,1198,2804,148.53,Swipe Transaction,8132,Cedar Park,TX,78630.0,8049,,2018-02-02,0,82,67,1937,6,79 South Boulevard,29.5,-97.44,15092.0,10869.0,1820.0,820,2,0,1198,Visa,Debit,4489873116412364,2021-08-01,547,1,2,12764.0,1999-05-01,2010,Podiatrists
216,21385304,2018-06-15 15:36:00,1915,3146,23.98,Chip Transaction,83480,Monroe,NY,10950.0,9402,,2018-06-15,0,54,65,1965,6,758 Sixth Boulevard,41.32,-74.18,25534.0,52062.0,97881.0,775,4,0,1915,Mastercard,Debit,5937648730770388,2024-12-01,903,1,1,34453.0,2014-05-01,2014,Postal Services - Government Only
217,21691099,2018-08-19 09:29:00,1629,4290,19.26,Online Transaction,50404,ONLINE,,,4784,,2018-08-19,0,42,63,1977,6,53789 Bayview Street,26.14,-80.13,14430.0,29422.0,58679.0,598,1,1,1629,Mastercard,Debit,5366247073382596,2021-04-01,515,1,2,18776.0,2009-08-01,2012,Tolls and Bridge Fees
218,19918690,2017-08-08 15:33:00,557,5570,9.02,Online Transaction,15143,ONLINE,,,4784,,2017-08-08,0,59,54,1960,9,350 Jefferson Boulevard,33.97,-118.35,18476.0,28245.0,13411.0,669,1,0,557,Mastercard,Debit,5755010791716629,2022-04-01,497,1,2,6090.0,2009-11-01,2011,Tolls and Bridge Fees
219,18099946,2016-07-18 09:03:00,705,5359,-84.0,Swipe Transaction,59935,Walnut Creek,CA,94598.0,5499,,2016-07-18,0,84,71,1935,9,136 Hillside Avenue,37.91,-122.01,42234.0,79870.0,4031.0,609,2,1,705,Visa,Credit,4560018445952481,2023-09-01,454,0,2,5200.0,1999-11-01,2009,Miscellaneous Food Stores
220,19920673,2017-08-09 06:56:00,254,1247,39.85,Chip Transaction,60510,Boulder,CO,80302.0,5912,,2017-08-09,0,30,66,1989,5,323 Eighth Drive,40.02,-105.25,33151.0,67589.0,0.0,734,3,0,254,Visa,Debit,4817071694522158,2020-06-01,185,1,2,27623.0,2010-02-01,2018,Drug Stores and Pharmacies
221,19233057,2017-03-16 16:09:00,1260,6081,141.74,Online Transaction,65108,ONLINE,,,4899,,2017-03-16,0,28,65,1991,12,1963 Summit Lane,26.14,-80.13,20995.0,42806.0,49194.0,712,3,0,1260,Amex,Credit,362698516441740,2024-07-01,439,1,2,0.0,2013-12-01,2013,"Cable, Satellite, and Other Pay Television Services"
222,20697331,2018-01-20 13:10:00,1969,4981,24.36,Chip Transaction,41451,Bradenton,FL,34212.0,5812,,2018-01-20,0,84,65,1935,4,402 El Camino Drive,27.48,-82.57,29583.0,44690.0,2249.0,733,5,0,1969,Discover,Credit,6242287666379868,2022-01-01,946,1,1,12300.0,2003-10-01,2010,Eating Places and Restaurants
223,17804010,2016-05-16 09:13:00,979,2613,21.63,Chip Transaction,32858,Spring Valley,CA,91978.0,5311,,2016-05-16,0,59,62,1961,2,621 Rose Avenue,34.06,-117.79,16025.0,32678.0,44434.0,693,3,0,979,Mastercard,Debit,5508211695909086,2024-05-01,164,1,1,12586.0,2009-04-01,2010,Department Stores
224,18417003,2016-09-23 21:21:00,901,4152,41.84,Chip Transaction,9051,Pensacola,FL,32507.0,5812,,2016-09-23,0,48,66,1971,9,96 11th Street,30.44,-87.18,17987.0,36671.0,39882.0,850,3,0,901,Mastercard,Debit,5956465531203720,2022-02-01,270,1,2,4319.0,2005-08-01,2011,Eating Places and Restaurants
225,18221005,2016-08-13 05:18:00,641,4718,9.24,Chip Transaction,41943,Columbus,OH,43228.0,5813,,2016-08-13,0,62,68,1957,11,878 Forest Street,39.98,-82.98,18420.0,37556.0,0.0,735,6,0,641,Mastercard,Debit,5316778308007531,2022-01-01,916,1,2,12275.0,2009-09-01,2009,Drinking Places (Alcoholic Beverages)
226,20803997,2018-02-12 08:19:00,1558,4747,72.95,Online Transaction,39021,ONLINE,,,4784,,2018-02-12,0,47,65,1973,2,675 Little Creek Drive,40.64,-73.94,25172.0,51330.0,106161.0,597,2,1,1558,Visa,Debit,4114768485287188,2023-03-01,234,1,1,2566.0,2009-09-01,2012,Tolls and Bridge Fees
227,20679920,2018-01-16 22:51:00,320,3384,89.17,Swipe Transaction,20561,Tucson,AZ,85710.0,5912,,2018-01-16,0,34,75,1985,8,6444 Madison Drive,32.22,-110.82,17480.0,35641.0,64419.0,625,2,0,320,Mastercard,Debit,5421302444823985,2024-09-01,889,0,2,15292.0,2008-06-01,2011,Drug Stores and Pharmacies
228,19875453,2017-07-30 12:02:00,1241,3501,110.3,Chip Transaction,46476,New Bremen,OH,45869.0,5211,,2017-07-30,0,40,69,1979,3,159 Plum Avenue,40.43,-84.38,24227.0,49396.0,39549.0,814,3,1,1241,Visa,Debit,4617983811742101,2023-03-01,469,1,2,9335.0,2010-06-01,2010,Lumber and Building Materials
229,21989632,2018-10-21 13:37:00,1818,3418,28.64,Chip Transaction,13523,Virginia Beach,VA,23453.0,5310,,2018-10-21,0,85,65,1934,6,23 11th Avenue,36.73,-76.04,29485.0,41843.0,1741.0,500,3,1,1818,Mastercard,Debit,5630819721997639,2021-03-01,160,1,2,23691.0,2009-06-01,2015,Discount Stores
230,20815963,2018-02-14 18:33:00,408,2515,52.06,Swipe Transaction,25717,Barron,WI,54812.0,5812,,2018-02-14,0,58,62,1961,4,690 Hill Lane,45.4,-91.84,15371.0,31343.0,49537.0,741,3,1,408,Visa,Debit,4450794746298149,2018-12-01,502,1,1,22457.0,2006-04-01,2010,Eating Places and Restaurants
231,18644265,2016-11-11 11:30:00,1842,5426,80.0,Chip Transaction,27092,Rio Rancho,NM,87124.0,4829,,2016-11-11,0,45,64,1974,10,41307 Main Lane,35.11,-106.62,15385.0,31373.0,58481.0,637,2,0,1842,Mastercard,Credit,5693202604748580,2024-07-01,166,1,2,1300.0,2005-11-01,2011,Money Transfer
232,18150761,2016-07-28 21:16:00,1873,306,52.11,Online Transaction,41122,ONLINE,,,4784,,2016-07-28,0,51,67,1968,12,3722 Valley Boulevard,31.84,-106.43,16823.0,34302.0,84935.0,651,3,1,1873,Visa,Debit (Prepaid),4329819283337925,2024-12-01,529,0,2,60.0,2012-01-01,2012,Tolls and Bridge Fees
233,20155637,2017-09-27 18:04:00,1581,5541,0.91,Chip Transaction,14528,Barnhart,MO,63012.0,5499,,2017-09-27,0,38,65,1981,11,9324 Catherine Street,38.42,-90.36,21744.0,44334.0,55173.0,684,5,1,1581,Mastercard,Debit,5862160658521395,2023-01-01,117,1,2,1807.0,2008-11-01,2013,Miscellaneous Food Stores
234,21991545,2018-10-21 22:13:00,47,5080,-65.0,Chip Transaction,61195,Bronx,NY,10456.0,5541,,2018-10-21,0,47,62,1972,9,523 Federal Drive,40.84,-73.87,12475.0,25434.0,45540.0,712,4,0,47,Mastercard,Credit,5635188704285842,2021-05-01,3,1,2,10500.0,2007-10-01,2011,Service Stations
235,21124849,2018-04-21 09:42:00,254,1247,80.0,Chip Transaction,27092,Longmont,CO,80503.0,4829,,2018-04-21,0,30,66,1989,5,323 Eighth Drive,40.02,-105.25,33151.0,67589.0,0.0,734,3,0,254,Visa,Debit,4817071694522158,2020-06-01,185,1,2,27623.0,2010-02-01,2018,Money Transfer
236,19305720,2017-04-01 08:03:00,1193,4023,3.93,Chip Transaction,19159,Poughkeepsie,NY,12603.0,5411,,2017-04-01,0,90,75,1929,11,6245 River Lane,41.69,-73.92,27934.0,51717.0,418.0,717,5,1,1193,Mastercard,Debit,5896188747962564,2022-12-01,194,1,1,38290.0,2014-07-01,2014,"Grocery Stores, Supermarkets"
237,20218676,2017-10-11 08:15:00,1096,5225,101.87,Chip Transaction,97333,Syracuse,NY,13212.0,5300,,2017-10-11,0,59,67,1960,10,1089 Norfolk Avenue,43.04,-76.14,20294.0,41379.0,95988.0,681,2,0,1096,Visa,Debit,4249372985491598,2022-10-01,678,1,1,26222.0,2010-10-01,2010,Wholesale Clubs
238,17493747,2016-03-10 14:20:00,1797,300,40.8,Online Transaction,15143,ONLINE,,,4784,,2016-03-10,0,67,65,1952,11,391 Martin Luther King Boulevard,37.71,-122.16,24971.0,30962.0,15336.0,743,5,0,1797,Mastercard,Debit,5535701151074664,2022-02-01,987,1,1,16279.0,2012-01-01,2012,Tolls and Bridge Fees
239,17880994,2016-06-01 14:20:00,1173,4696,6.31,Chip Transaction,30055,Buhl,ID,83316.0,7832,,2016-06-01,0,71,67,1948,3,3095 Hill Boulevard,42.83,-106.32,25502.0,51703.0,5371.0,722,7,0,1173,Visa,Debit,4547819605508075,2024-06-01,410,1,1,1342.0,2008-09-01,2008,Motion Picture Theaters
240,20729663,2018-01-27 10:31:00,438,5538,57.23,Chip Transaction,62497,Newark,NJ,7112.0,5300,,2018-01-27,0,32,66,1987,10,12960 El Camino Lane,40.72,-74.17,16691.0,34034.0,55846.0,633,2,1,438,Mastercard,Debit,5538862189927591,2023-12-01,664,1,2,2307.0,2008-11-01,2010,Wholesale Clubs
241,21855944,2018-09-23 08:12:00,379,3881,2.43,Chip Transaction,50783,Mobile,AL,36695.0,5411,,2018-09-23,0,47,65,1972,11,837 Lincoln Avenue,30.68,-88.04,21331.0,43496.0,114563.0,765,3,1,379,Mastercard,Debit,5400182448188961,2021-10-01,412,1,1,24232.0,2009-07-01,2009,"Grocery Stores, Supermarkets"
242,21744168,2018-08-30 13:01:00,1083,3710,1.08,Chip Transaction,14528,Flatwoods,KY,41139.0,5499,,2018-08-30,0,44,65,1975,3,45682 Washington Lane,38.45,-82.64,18916.0,38568.0,66300.0,756,4,1,1083,Mastercard,Debit,5866158485564729,2022-10-01,48,1,1,24455.0,2004-07-01,2014,Miscellaneous Food Stores
243,17790234,2016-05-13 09:16:00,714,2958,2.58,Chip Transaction,45926,Polson,MT,59860.0,5814,,2016-05-13,0,61,67,1958,10,72 Second Street,45.34,-122.66,35992.0,73383.0,155191.0,760,2,1,714,Mastercard,Debit (Prepaid),5082951387967574,2022-07-01,776,1,1,42.0,2008-05-01,2014,Fast Food Restaurants
244,22074103,2018-11-08 13:08:00,595,3049,76.38,Chip Transaction,61042,Bullock,NC,27507.0,5300,,2018-11-08,0,79,66,1941,2,132 Lexington Drive,36.5,-78.55,18100.0,29041.0,4427.0,699,4,0,595,Mastercard,Debit,5268706720915465,2020-07-01,202,1,1,18035.0,2010-05-01,2010,Wholesale Clubs
245,17370943,2016-02-12 11:43:00,1776,4938,57.9,Online Transaction,39021,ONLINE,,,4784,,2016-02-12,0,47,75,1972,10,130 Lincoln Drive,40.04,-82.12,21156.0,43133.0,44263.0,693,3,0,1776,Amex,Credit,357731604070533,2020-05-01,270,1,1,13400.0,1999-10-01,2012,Tolls and Bridge Fees
246,19621874,2017-06-07 07:02:00,921,4675,31.04,Chip Transaction,73958,Rush,NY,14543.0,5912,,2017-06-07,0,74,66,1945,5,960 Mill Lane,42.98,-77.67,26072.0,54013.0,3628.0,779,8,0,921,Mastercard,Debit,5570607538229113,2024-02-01,572,1,1,30547.0,2008-09-01,2008,Drug Stores and Pharmacies
247,22120240,2018-11-18 09:25:00,479,1332,3.03,Chip Transaction,72163,Del Rio,TX,78840.0,5411,,2018-11-18,0,57,69,1962,10,936 12th Street,39.11,-76.55,30004.0,61173.0,71422.0,692,3,0,479,Visa,Debit,4569944754910437,2022-10-01,19,1,2,43767.0,2013-02-01,2013,"Grocery Stores, Supermarkets"
248,19435145,2017-04-28 13:25:00,509,4588,18.89,Chip Transaction,46284,Chillicothe,OH,45601.0,5411,,2017-04-28,0,33,66,1986,7,239 Sussex Drive,38.41,-82.43,21842.0,44534.0,107410.0,702,4,0,509,Visa,Debit,4262181069766792,2022-07-01,519,1,1,12721.0,2005-09-01,2015,"Grocery Stores, Supermarkets"
249,21231351,2018-05-13 19:17:00,1602,282,7.44,Chip Transaction,14436,Mount Union,PA,17066.0,5813,,2018-05-13,0,41,66,1979,2,2079 Maple Drive,40.38,-77.88,14650.0,29864.0,44902.0,717,2,1,1602,Visa,Credit,4698943729070491,2020-09-01,450,1,1,6600.0,2011-01-01,2013,Drinking Places (Alcoholic Beverages)
250,19090622,2017-02-14 12:03:00,401,3035,13.9,Chip Transaction,86410,North Hollywood,CA,91605.0,5211,,2017-02-14,0,81,71,1938,9,84497 Valley Stream Drive,34.2,-118.39,15239.0,28644.0,879.0,806,7,0,401,Amex,Credit,321401373752458,2023-04-01,507,1,2,11000.0,2010-05-01,2014,Lumber and Building Materials
251,17740721,2016-05-02 16:04:00,1648,5282,62.71,Chip Transaction,36934,Morris Plains,NJ,7950.0,7538,,2016-05-02,0,66,69,1953,5,211 Valley Street,40.76,-74.59,91180.0,185909.0,461854.0,621,5,1,1648,Visa,Credit,4699987716360968,2022-06-01,973,1,1,36700.0,2013-10-01,2013,Automotive Service Shops
252,18614819,2016-11-05 07:53:00,1046,9,49.27,Chip Transaction,50867,Philadelphia,PA,19146.0,5541,,2016-11-05,0,44,66,1975,6,9414 Summit Boulevard,39.95,-75.16,18007.0,36715.0,74022.0,547,4,0,1046,Amex,Credit,357982644067712,2020-09-01,72,1,1,13000.0,1999-01-01,2005,Service Stations
253,20187129,2017-10-04 13:07:00,1208,1170,11.25,Chip Transaction,22204,Lewistown,PA,17044.0,5541,,2017-10-04,0,38,72,1981,9,9541 Ocean View Drive,40.59,-77.57,16375.0,33387.0,69066.0,526,3,0,1208,Mastercard,Debit,5084690936737005,2020-02-01,476,1,2,8024.0,2009-02-01,2012,Service Stations
254,20196166,2017-10-06 10:49:00,699,3875,13.23,Chip Transaction,35451,Cedar Rapids,IA,52403.0,5812,,2017-10-06,0,42,68,1978,2,9141 Ocean View Lane,41.48,-91.57,22308.0,45475.0,68358.0,698,3,0,699,Visa,Debit,4029109059179282,2024-08-01,637,1,2,8960.0,2008-07-01,2014,Eating Places and Restaurants
255,22166883,2018-11-28 09:02:00,1236,2369,4.38,Chip Transaction,75781,Colorado Springs,CO,80917.0,5411,,2018-11-28,0,72,65,1947,9,521 Main Lane,38.86,-104.76,14645.0,25243.0,18006.0,730,6,1,1236,Visa,Credit,4788127455899674,2021-01-01,710,1,1,8800.0,2017-03-01,2017,"Grocery Stores, Supermarkets"
256,19771120,2017-07-08 10:45:00,154,4340,1.69,Chip Transaction,27125,Fayetteville,NC,28312.0,7542,,2017-07-08,0,48,61,1971,6,8993 Madison Avenue,34.93,-78.72,18376.0,37468.0,73448.0,666,3,0,154,Visa,Debit,4287822159932211,2022-11-01,878,1,2,4660.0,2010-08-01,2013,Car Washes
257,19970257,2017-08-19 13:16:00,586,3983,12.43,Chip Transaction,22204,Auburn Hills,MI,48326.0,5541,,2017-08-19,0,37,63,1983,2,372 12th Boulevard,35.57,-82.54,22983.0,46864.0,58954.0,751,4,0,586,Visa,Credit,4095430974536550,2021-03-01,614,1,2,20300.0,2011-07-01,2011,Service Stations
258,19517469,2017-05-16 07:01:00,1453,1117,2.18,Chip Transaction,30928,Decatur,AL,35601.0,5541,,2017-05-16,0,37,73,1982,11,4830 Ocean Drive,33.73,-87.28,17716.0,36122.0,51593.0,641,2,1,1453,Mastercard,Debit,5836173617667136,2024-11-01,80,1,1,14561.0,2007-02-01,2015,Service Stations
259,19024063,2017-01-31 10:23:00,1332,2406,6.15,Swipe Transaction,37297,Port Chester,NY,10573.0,5411,,2017-01-31,0,63,68,1956,6,547 West Drive,41.0,-73.66,35269.0,71909.0,44190.0,712,3,0,1332,Visa,Debit,4733764906350562,2021-09-01,982,1,1,21749.0,1999-04-01,2008,"Grocery Stores, Supermarkets"
260,19571902,2017-05-27 12:14:00,1910,3288,-96.0,Chip Transaction,59935,Bradenton,FL,34203.0,5499,,2017-05-27,0,49,59,1970,5,710 North Lane,27.48,-82.57,17590.0,35868.0,48465.0,562,4,0,1910,Mastercard,Debit,5465784735932043,2021-08-01,490,1,1,10764.0,2005-06-01,2007,Miscellaneous Food Stores
261,22162640,2018-11-27 10:53:00,1966,2643,37.53,Chip Transaction,36934,Paragould,AR,72450.0,7538,,2018-11-27,0,42,68,1977,11,3835 Norfolk Street,36.05,-90.51,15447.0,31499.0,45661.0,782,4,0,1966,Mastercard,Debit,5638732969366742,2023-04-01,854,1,2,13326.0,2010-04-01,2010,Automotive Service Shops
262,20708040,2018-01-22 18:48:00,984,2796,15.7,Swipe Transaction,75781,Austin,TX,78717.0,5411,,2018-01-22,0,63,66,1956,3,642 Ocean View Lane,28.3,-81.41,16150.0,32928.0,80794.0,850,5,1,984,Visa,Debit,4735265751138652,2022-08-01,484,1,1,14217.0,1997-05-01,2013,"Grocery Stores, Supermarkets"
263,21057065,2018-04-07 00:00:00,641,4456,99.46,Chip Transaction,82268,Columbus,OH,43228.0,5411,,2018-04-07,0,62,68,1957,11,878 Forest Street,39.98,-82.98,18420.0,37556.0,0.0,735,6,0,641,Mastercard,Debit,5932134708405084,2020-02-01,290,1,1,17946.0,2016-08-01,2016,"Grocery Stores, Supermarkets"
264,18437397,2016-09-28 09:00:00,848,5423,261.88,Swipe Transaction,60569,Hyattsville,MD,20783.0,5300,,2016-09-28,0,51,69,1968,5,166 River Drive,38.86,-76.6,33529.0,68362.0,96182.0,711,2,0,848,Amex,Credit,349882494435592,2023-01-01,647,1,1,13700.0,2005-11-01,2008,Wholesale Clubs
265,17370400,2016-02-12 09:57:00,602,3982,32.83,Chip Transaction,32858,Bailey,NC,27807.0,5311,,2016-02-12,0,57,67,1963,1,46 South Street,36.34,-79.67,16888.0,34437.0,0.0,681,4,0,602,Visa,Credit,4509798381757686,2021-11-01,529,1,1,9500.0,2011-07-01,2016,Department Stores
266,20999232,2018-03-25 15:34:00,1302,5464,59.4,Chip Transaction,52090,Jefferson,NC,28640.0,5411,,2018-03-25,0,62,72,1958,2,8323 Catherine Boulevard,36.42,-81.46,14218.0,28988.0,13351.0,694,4,1,1302,Mastercard,Debit,5867658090755003,2024-02-01,205,1,1,9883.0,2006-11-01,2010,"Grocery Stores, Supermarkets"
267,18902363,2017-01-05 11:08:00,1370,4957,12.87,Chip Transaction,75781,Elk Grove,CA,95624.0,5411,,2017-01-05,0,62,66,1958,1,99 Fifth Street,38.44,-121.3,25949.0,52908.0,109229.0,709,4,1,1370,Mastercard,Debit,5831867303465557,2024-07-01,88,1,2,12610.0,2001-10-01,2007,"Grocery Stores, Supermarkets"
268,18003341,2016-06-27 14:53:00,1676,5158,56.52,Chip Transaction,43293,Raymore,MO,64083.0,5499,,2016-06-27,0,51,65,1968,12,919 Martin Luther King Lane,38.81,-94.45,24981.0,50936.0,88447.0,681,3,0,1676,Mastercard,Debit,5480672627250008,2021-09-01,129,1,2,4055.0,2009-10-01,2017,Miscellaneous Food Stores
269,18171266,2016-08-02 11:01:00,751,5711,19.52,Chip Transaction,78454,Indianapolis,IN,46260.0,5812,,2016-08-02,0,61,64,1958,8,860 Martin Luther King Boulevard,33.45,-96.74,24364.0,49677.0,108399.0,593,4,1,751,Mastercard,Debit,5368688278025209,2016-10-01,854,1,1,19488.0,2015-11-01,2015,Eating Places and Restaurants
270,20941378,2018-03-13 13:23:00,1432,4958,11.65,Chip Transaction,22204,Bell Gardens,CA,90201.0,5541,,2018-03-13,0,42,72,1977,8,78 Lexington Street,40.96,-74.61,34205.0,69747.0,80763.0,741,4,0,1432,Visa,Debit,4326650926720477,2021-05-01,924,1,1,32043.0,2001-10-01,2009,Service Stations
271,21974981,2018-10-18 13:53:00,1234,22,1.87,Swipe Transaction,14528,Mount Vernon,MO,65712.0,5499,,2018-10-18,0,44,64,1975,10,7815 Hillside Avenue,29.76,-95.38,30499.0,62185.0,114235.0,749,1,0,1234,Visa,Debit (Prepaid),4634294164066043,2023-01-01,50,0,1,65.0,2001-01-01,2007,Miscellaneous Food Stores
272,18683365,2016-11-19 18:20:00,846,3886,0.0,Swipe Transaction,27092,Omaha,NE,68144.0,4829,,2016-11-19,0,48,66,1971,11,58 Catherine Drive,41.26,-96.01,33232.0,67761.0,0.0,745,4,1,846,Mastercard,Credit,5437152511733314,2022-01-01,853,1,1,13800.0,2009-07-01,2017,Money Transfer
273,17232208,2016-01-13 16:49:00,1677,4969,93.0,Chip Transaction,43293,Lubbock,TX,79415.0,5499,,2016-01-13,0,51,67,1969,2,849 Littlewood Drive,33.57,-101.87,16272.0,33178.0,92366.0,671,2,0,1677,Mastercard,Debit,5650667533582383,2022-04-01,228,1,2,13404.0,2002-10-01,2018,Miscellaneous Food Stores
274,20721286,2018-01-25 14:21:00,1527,2366,43.78,Chip Transaction,22204,Wolfeboro,NH,3894.0,5541,,2018-01-25,0,66,67,1953,11,1426 Fifth Avenue,43.32,-71.18,24779.0,50523.0,98763.0,578,1,1,1527,Mastercard,Credit,5801798801399788,2021-06-01,527,1,2,7100.0,2017-03-01,2017,Service Stations
275,17472805,2016-03-06 09:09:00,1096,3012,114.02,Chip Transaction,61195,Syracuse,NY,13224.0,5541,,2016-03-06,0,59,67,1960,10,1089 Norfolk Avenue,43.04,-76.14,20294.0,41379.0,95988.0,681,2,0,1096,Mastercard,Credit,5257815762743073,2020-10-01,52,1,2,5500.0,2009-05-01,2009,Service Stations
276,20474624,2017-12-04 12:19:00,51,6031,25.28,Chip Transaction,37861,Hendersonville,TN,37075.0,7230,,2017-12-04,0,29,67,1991,2,3260 Hillside Lane,36.29,-86.6,25166.0,51303.0,106248.0,688,3,1,51,Visa,Credit,4718480260665073,2020-07-01,909,1,1,12700.0,2010-12-01,2011,Beauty and Barber Shops
277,21129937,2018-04-22 10:27:00,883,3604,4.29,Chip Transaction,53435,Portland,OR,97213.0,5411,,2018-04-22,0,33,60,1987,2,6174 East Street,45.53,-122.6,26647.0,54333.0,103224.0,584,1,0,883,Amex,Credit,364278996069965,2020-02-01,191,1,1,12500.0,2016-06-01,2016,"Grocery Stores, Supermarkets"
278,20700921,2018-01-21 09:34:00,1366,315,76.28,Chip Transaction,61195,Jacksonville,FL,32210.0,5541,,2018-01-21,0,25,63,1994,9,212 Lincoln Lane,30.33,-81.65,19617.0,40000.0,127951.0,767,3,1,1366,Mastercard,Credit,5244253968518286,2024-07-01,684,1,2,12400.0,2013-01-01,2013,Service Stations
279,17770154,2016-05-09 02:14:00,832,3548,52.51,Online Transaction,73186,ONLINE,,,4814,,2016-05-09,0,40,67,1979,5,8799 Elm Avenue,33.2,-96.65,24684.0,50329.0,76759.0,625,4,1,832,Mastercard,Credit,5218196083865154,2024-10-01,647,1,1,10900.0,2012-06-01,2012,Telecommunication Services
280,18498532,2016-10-11 10:15:00,1497,3655,4.48,Swipe Transaction,79664,Filer,ID,83328.0,5814,,2016-10-11,0,55,64,1964,12,292 Tenth Street,38.53,-121.44,17435.0,35553.0,76077.0,623,1,1,1497,Visa,Debit,4255117392431602,2020-04-01,582,0,2,14751.0,1999-07-01,2012,Fast Food Restaurants
281,21695675,2018-08-20 09:39:00,1589,337,45.31,Swipe Transaction,34490,Los Angeles,CA,90025.0,5719,,2018-08-20,0,39,70,1981,1,6301 Hillside Avenue,34.02,-118.15,13485.0,27494.0,44258.0,702,3,1,1589,Visa,Debit,4939717188461311,2023-10-01,395,0,1,11912.0,2014-01-01,2014,Miscellaneous Home Furnishing Stores
282,20689646,2018-01-18 22:37:00,984,2796,1.38,Chip Transaction,14528,Austin,TX,78717.0,5499,,2018-01-18,0,63,66,1956,3,642 Ocean View Lane,28.3,-81.41,16150.0,32928.0,80794.0,850,5,1,984,Visa,Debit,4735265751138652,2022-08-01,484,1,1,14217.0,1997-05-01,2013,Miscellaneous Food Stores
283,18340554,2016-09-07 12:44:00,871,3831,184.06,Chip Transaction,51408,Detroit,MI,48235.0,8041,,2016-09-07,0,86,71,1933,5,81 Hill Avenue,42.38,-83.1,13820.0,22650.0,0.0,690,6,1,871,Amex,Credit,339948848081416,2023-03-01,643,1,1,9000.0,2008-07-01,2013,Chiropractors
284,17375039,2016-02-13 10:34:00,872,5609,15.24,Chip Transaction,25887,Maywood,IL,60153.0,5814,,2016-02-13,0,61,66,1959,1,96 Lake Lane,41.88,-87.84,15451.0,31505.0,59730.0,655,4,1,872,Mastercard,Credit,5418010568255294,2018-06-01,205,1,2,7400.0,2010-11-01,2012,Fast Food Restaurants
285,20629752,2018-01-06 08:49:00,1077,4104,7.29,Chip Transaction,33054,Ukiah,CA,95482.0,7230,,2018-01-06,0,57,54,1962,12,886 Plum Boulevard,39.12,-123.28,17899.0,12044.0,10323.0,576,3,1,1077,Visa,Debit (Prepaid),4849525193834905,2020-05-01,704,1,2,33.0,2001-08-01,2009,Beauty and Barber Shops
286,22255239,2018-12-16 19:46:00,211,4746,2.58,Chip Transaction,14528,Lake Havasu City,AZ,86404.0,5499,,2018-12-16,0,43,71,1976,5,441 River Street,34.61,-114.3,14214.0,28983.0,36482.0,755,3,0,211,Visa,Debit,4134647729232459,2020-08-01,517,1,2,17013.0,2009-09-01,2009,Miscellaneous Food Stores
287,21243410,2018-05-16 13:42:00,203,3966,53.4,Swipe Transaction,95845,Islandton,SC,29929.0,7230,,2018-05-16,0,58,67,1961,3,407 Park Lane,32.9,-80.93,14864.0,30305.0,23392.0,776,3,1,203,Mastercard,Credit,5175414290540891,2022-04-01,497,0,2,2600.0,2011-07-01,2011,Beauty and Barber Shops
288,18401316,2016-09-20 13:09:00,98,4143,7.91,Chip Transaction,75781,Seymour,IL,61875.0,5411,,2016-09-20,0,80,67,1939,4,7872 Oak Drive,40.14,-87.61,15755.0,16646.0,1639.0,590,2,1,98,Visa,Credit,4502471811797983,2020-04-01,477,1,1,8700.0,2004-08-01,2006,"Grocery Stores, Supermarkets"
289,18374320,2016-09-14 16:06:00,1757,2685,89.0,Chip Transaction,59935,Muncie,IN,47304.0,5499,,2016-09-14,0,39,68,1980,11,2773 El Camino Lane,40.19,-85.39,20644.0,42086.0,79530.0,784,4,0,1757,Visa,Debit,4126600786733032,2023-10-01,380,1,1,12628.0,2011-04-01,2012,Miscellaneous Food Stores
290,21169148,2018-04-30 15:57:00,1817,2530,22.34,Online Transaction,16798,ONLINE,,,4121,,2018-04-30,0,52,64,1968,2,25622 Lake Street,29.55,-95.27,36253.0,73920.0,166395.0,683,1,1,1817,Mastercard,Debit,5686575699244488,2024-12-01,666,1,2,43033.0,2007-04-01,2013,Taxicabs and Limousines
291,20861595,2018-02-24 12:36:00,1340,2954,152.1,Swipe Transaction,50619,Houston,TX,77064.0,5912,,2018-02-24,0,53,68,1966,8,815 Hillside Drive,29.76,-95.38,26420.0,53872.0,64269.0,691,5,0,1340,Amex,Credit,329808568475348,2021-06-01,259,0,1,13300.0,2008-05-01,2013,Drug Stores and Pharmacies
292,20393608,2017-11-17 09:01:00,55,3980,2.23,Chip Transaction,14528,Richmond,CA,94804.0,5499,,2017-11-17,0,61,68,1958,3,3374 Littlewood Street,37.92,-122.34,21869.0,44583.0,85531.0,717,5,1,55,Mastercard,Debit,5603953556223249,2021-07-01,279,1,2,6056.0,2011-07-01,2011,Miscellaneous Food Stores
293,18219240,2016-08-12 15:11:00,1128,4765,91.0,Chip Transaction,59935,Newport Center,VT,5857.0,5499,,2016-08-12,0,47,68,1972,7,208 Park Avenue,44.53,-72.0,16976.0,34606.0,23909.0,680,5,0,1128,Mastercard,Credit,5598634791848895,2023-04-01,830,1,2,10600.0,2010-09-01,2014,Miscellaneous Food Stores
294,21711941,2018-08-23 16:10:00,118,3848,18.28,Chip Transaction,60569,Birmingham,AL,35214.0,5300,,2018-08-23,0,56,68,1963,12,407 Seventh Lane,33.52,-86.79,15471.0,31533.0,42315.0,753,3,1,118,Mastercard,Debit,5548387982631859,2021-07-01,666,1,2,2629.0,2008-07-01,2017,Wholesale Clubs
295,20491179,2017-12-07 21:06:00,951,2942,18.7,Online Transaction,16798,ONLINE,,,4121,,2017-12-07,0,57,66,1962,9,381 Catherine Avenue,33.91,-118.23,13075.0,26664.0,12241.0,709,4,1,951,Visa,Credit,4609960492769091,2023-03-01,512,1,2,5400.0,2007-05-01,2013,Taxicabs and Limousines
296,19821139,2017-07-19 03:53:00,702,2258,115.47,Chip Transaction,60569,Huntington Station,NY,11746.0,5300,,2017-07-19,0,46,68,1973,7,33 Tenth Street,40.84,-73.4,34873.0,71103.0,136853.0,721,4,1,702,Visa,Credit,4071413558241551,2021-04-01,58,1,1,20100.0,2010-03-01,2017,Wholesale Clubs
297,21056425,2018-04-06 19:11:00,1214,5508,49.62,Chip Transaction,20884,Hingham,MA,2043.0,5812,,2018-04-06,0,40,64,1979,11,83302 Valley Stream Lane,42.06,-71.24,35544.0,72470.0,133421.0,711,2,0,1214,Visa,Debit,4968168260037253,2021-05-01,607,1,1,21073.0,2007-11-01,2011,Eating Places and Restaurants
298,20208922,2017-10-09 07:31:00,1243,3047,154.31,Chip Transaction,88112,Chambersburg,PA,17201.0,1711,,2017-10-09,0,31,72,1989,1,9316 Hillside Lane,40.27,-76.88,17110.0,34884.0,26799.0,705,5,1,1243,Mastercard,Credit,5688444191664896,2023-06-01,723,1,1,7300.0,2010-05-01,2011,"Heating, Plumbing, Air Conditioning Contractors"
299,18268313,2016-08-23 07:43:00,772,3678,3.99,Swipe Transaction,94443,Gresham,OR,97080.0,5411,,2016-08-23,0,62,65,1957,10,24684 Ocean View Boulevard,45.47,-122.37,22599.0,46075.0,139335.0,741,3,1,772,Mastercard,Debit (Prepaid),5591003097918979,2023-05-01,390,1,2,62.0,2002-07-01,2011,"Grocery Stores, Supermarkets"
300,17243107,2016-01-16 07:31:00,1909,5640,9.28,Chip Transaction,75781,Los Angeles,CA,90008.0,5411,,2016-01-16,0,56,66,1963,5,603 Lake Avenue,34.02,-118.28,13002.0,26510.0,53023.0,696,4,0,1909,Visa,Debit,4129826777465625,2021-11-01,941,1,1,9599.0,2010-11-01,2010,"Grocery Stores, Supermarkets"
301,20642181,2018-01-08 20:10:00,1189,2067,32.19,Swipe Transaction,22938,Plymouth Meeting,PA,19462.0,5812,,2018-01-08,0,63,68,1956,11,412 Spruce Boulevard,42.66,-73.79,15490.0,31582.0,23359.0,693,4,1,1189,Mastercard,Debit,5721768564866906,2024-10-01,877,1,2,1633.0,2004-03-01,2011,Eating Places and Restaurants
302,19739654,2017-07-01 16:55:00,59,5195,2.38,Chip Transaction,14528,Clovis,NM,88101.0,5499,,2017-07-01,0,85,69,1934,8,726 Oak Avenue,32.78,-108.26,16654.0,25066.0,424.0,695,7,1,59,Mastercard,Credit,5287886813527779,2021-09-01,710,1,1,6800.0,2010-10-01,2010,Miscellaneous Food Stores
303,17831935,2016-05-22 08:54:00,566,4547,62.77,Chip Transaction,79927,Holly,MI,48442.0,5912,,2016-05-22,0,60,67,1959,10,8179 Valley Stream Drive,42.79,-83.62,22680.0,46244.0,108449.0,814,5,1,566,Amex,Credit,304564349597311,2024-11-01,170,1,2,12700.0,2004-09-01,2008,Drug Stores and Pharmacies
304,17689764,2016-04-21 14:58:00,648,3888,14.4,Chip Transaction,83271,Clovis,NM,88101.0,4214,,2016-04-21,0,40,61,1980,2,466 Pine Drive,32.78,-108.26,14642.0,29854.0,66044.0,674,3,1,648,Mastercard,Credit,5007364960274325,2020-10-01,704,1,2,2800.0,2009-07-01,2010,Motor Freight Carriers and Trucking
305,17916429,2016-06-09 07:10:00,1575,5582,41.69,Chip Transaction,13646,Portsmouth,VA,23704.0,7538,,2016-06-09,0,51,68,1968,5,23 12th Boulevard,27.19,-82.49,28272.0,57646.0,127892.0,724,4,1,1575,Visa,Debit,4753063175082230,2020-02-01,352,1,2,35791.0,2009-11-01,2009,Automotive Service Shops
306,19526312,2017-05-17 20:34:00,1435,4840,12.83,Chip Transaction,77948,Alpharetta,GA,30004.0,4121,,2017-05-17,0,41,78,1978,10,9872 Lexington Street,34.06,-84.27,45132.0,92017.0,157723.0,703,3,1,1435,Visa,Debit,4372566654697981,2023-09-01,83,1,2,34818.0,2012-09-01,2012,Taxicabs and Limousines
307,18278322,2016-08-25 08:41:00,1236,5351,2.56,Swipe Transaction,45926,Colorado Springs,CO,80915.0,5814,,2016-08-25,0,72,65,1947,9,521 Main Lane,38.86,-104.76,14645.0,25243.0,18006.0,730,6,1,1236,Mastercard,Debit,5929990861229924,2024-01-01,459,1,1,4304.0,1997-11-01,2012,Fast Food Restaurants
308,18591273,2016-10-31 07:43:00,106,1037,5.54,Chip Transaction,75936,Indianapolis,IN,46203.0,5814,,2016-10-31,0,52,60,1967,10,146 Plum Avenue,39.77,-86.14,14691.0,29957.0,60321.0,624,5,0,106,Mastercard,Debit,5810565047358846,2020-11-01,736,1,2,11154.0,2004-02-01,2007,Fast Food Restaurants
309,17468214,2016-03-05 09:27:00,470,3733,-94.0,Swipe Transaction,22204,Arkoma,OK,74901.0,5541,,2016-03-05,0,56,65,1964,2,281 Martin Luther King Avenue,35.14,-96.49,14004.0,28553.0,94214.0,747,3,0,470,Mastercard,Debit,5926369913315413,2021-04-01,982,0,1,7581.0,2005-07-01,2014,Service Stations
310,17618522,2016-04-06 11:34:00,1742,5869,1.23,Chip Transaction,75781,Noblesville,IN,46062.0,5411,,2016-04-06,0,58,67,1961,11,444 Maple Avenue,40.05,-86.03,24638.0,50232.0,1218.0,751,4,1,1742,Visa,Debit (Prepaid),4792307130049695,2020-02-01,221,1,2,12.0,2006-12-01,2013,"Grocery Stores, Supermarkets"
311,22086325,2018-11-11 06:16:00,1880,2014,9.51,Swipe Transaction,20519,Milwaukee,WI,53210.0,5942,,2018-11-11,0,61,66,1958,11,8001 Essex Boulevard,43.06,-87.96,15487.0,31579.0,52419.0,771,3,0,1880,Mastercard,Debit,5456915066505066,2021-12-01,553,0,1,14719.0,2000-03-01,2008,Book Stores
312,19344962,2017-04-09 13:11:00,203,242,34.46,Chip Transaction,60569,Alpharetta,GA,30004.0,5300,,2017-04-09,0,58,67,1961,3,407 Park Lane,32.9,-80.93,14864.0,30305.0,23392.0,776,3,1,203,Visa,Credit,4716309780327853,2022-07-01,275,1,1,9100.0,2010-01-01,2010,Wholesale Clubs
313,17857486,2016-05-27 14:57:00,376,1262,17.99,Swipe Transaction,83480,Vincentown,NJ,8088.0,9402,,2016-05-27,0,50,74,1969,4,818 12th Lane,39.8,-74.62,28433.0,57975.0,34570.0,773,4,1,376,Visa,Debit,4961188850895805,2021-08-01,629,0,1,28884.0,2010-02-01,2015,Postal Services - Government Only
314,17264116,2016-01-20 12:48:00,828,3126,12.47,Chip Transaction,44578,San Antonio,TX,78218.0,5812,,2016-01-20,0,59,71,1960,3,85 Littlewood Avenue,29.45,-98.5,17609.0,35906.0,69819.0,659,3,1,828,Visa,Credit,4073585160932951,2023-05-01,635,1,2,4100.0,2012-05-01,2012,Eating Places and Restaurants
315,22023007,2018-10-28 14:39:00,1229,3282,58.0,Chip Transaction,59935,Pinehurst,NC,28374.0,5499,,2018-10-28,0,50,66,1970,2,421 Essex Street,35.18,-79.46,24206.0,49350.0,20942.0,713,6,0,1229,Visa,Credit,4751829096986111,2019-02-01,153,1,2,7600.0,2004-06-01,2010,Miscellaneous Food Stores
316,17701298,2016-04-24 09:20:00,1517,72,6.47,Chip Transaction,87625,Woodbridge,VA,22191.0,5812,,2016-04-24,0,37,71,1982,3,7954 Wessex Boulevard,38.9,-77.26,60593.0,123540.0,236393.0,764,4,0,1517,Mastercard,Debit,5515747009144505,2024-01-01,306,1,2,19670.0,2005-01-01,2009,Eating Places and Restaurants
317,18894988,2017-01-03 19:47:00,478,1099,122.37,Online Transaction,87530,ONLINE,,,4900,,2017-01-03,0,54,71,1965,9,9939 Mill Lane,34.05,-84.07,35710.0,72807.0,0.0,803,3,0,478,Visa,Credit,4564555970607146,2022-07-01,200,1,1,15600.0,2006-02-01,2011,"Utilities - Electric, Gas, Water, Sanitary"
318,17193757,2016-01-05 12:57:00,509,3446,2.19,Chip Transaction,43293,Huntington,WV,25705.0,5499,,2016-01-05,0,33,66,1986,7,239 Sussex Drive,38.41,-82.43,21842.0,44534.0,107410.0,702,4,0,509,Visa,Debit,4119030099012884,2022-08-01,613,1,2,25292.0,2009-06-01,2009,Miscellaneous Food Stores
319,21232784,2018-05-14 08:21:00,1895,2119,9.98,Chip Transaction,79927,Barnegat,NJ,8005.0,5912,Technical Glitch,2018-05-14,0,56,65,1963,3,900 Littlewood Street,39.75,-74.22,20034.0,40848.0,146608.0,706,2,1,1895,Mastercard,Debit,5267518025716847,2022-01-01,292,1,2,2042.0,2006-03-01,2013,Drug Stores and Pharmacies
320,19381830,2017-04-17 12:01:00,631,2596,5.82,Swipe Transaction,62696,Oklahoma City,OK,73159.0,5921,,2017-04-17,0,83,65,1936,5,273 Elm Drive,35.46,-97.51,17070.0,33811.0,2206.0,682,7,1,631,Amex,Credit,354553734129805,2024-02-01,512,0,1,8500.0,2009-04-01,2010,"Package Stores, Beer, Wine, Liquor"
321,20615451,2018-01-03 08:59:00,1002,1149,52.0,Chip Transaction,61195,Bakersfield,CA,93306.0,5541,,2018-01-03,0,31,67,1988,4,8446 Catherine Drive,35.43,-118.83,19023.0,38788.0,77448.0,716,1,0,1002,Mastercard,Debit,5609582366095384,2020-01-01,292,1,2,15962.0,2008-02-01,2013,Service Stations
322,21361177,2018-06-10 13:12:00,509,4588,18.87,Chip Transaction,96510,Huntington,WV,25705.0,5812,,2018-06-10,0,33,66,1986,7,239 Sussex Drive,38.41,-82.43,21842.0,44534.0,107410.0,702,4,0,509,Visa,Debit,4262181069766792,2022-07-01,519,1,1,12721.0,2005-09-01,2015,Eating Places and Restaurants
323,17760668,2016-05-06 22:05:00,630,2059,100.0,Chip Transaction,27092,Jacksonville,FL,32221.0,4829,,2016-05-06,0,60,66,1959,7,1583 Grant Avenue,30.33,-81.65,19382.0,39521.0,61861.0,491,3,0,630,Mastercard,Debit,5772590166573650,2020-07-01,370,1,1,7546.0,2004-03-01,2010,Money Transfer
324,20254467,2017-10-18 18:56:00,1776,4938,56.65,Chip Transaction,6489,Nashport,OH,43830.0,5300,,2017-10-18,0,47,75,1972,10,130 Lincoln Drive,40.04,-82.12,21156.0,43133.0,44263.0,693,3,0,1776,Amex,Credit,357731604070533,2020-05-01,270,1,1,13400.0,1999-10-01,2012,Wholesale Clubs
325,18906781,2017-01-06 09:49:00,1133,195,3.78,Chip Transaction,91128,North Rose,NY,14516.0,5411,,2017-01-06,0,30,66,1989,10,781 Federal Street,43.11,-77.8,22855.0,46599.0,12700.0,684,4,1,1133,Mastercard,Debit (Prepaid),5491911967251854,2024-04-01,256,1,2,69.0,2009-01-01,2013,"Grocery Stores, Supermarkets"
326,18747323,2016-12-03 11:10:00,984,121,120.0,Chip Transaction,27092,Kissimmee,FL,34746.0,4829,,2016-12-03,0,63,66,1956,3,642 Ocean View Lane,28.3,-81.41,16150.0,32928.0,80794.0,850,5,1,984,Visa,Credit,4163142253525850,2024-05-01,949,1,2,10600.0,2006-01-01,2015,Money Transfer
327,18583024,2016-10-29 11:45:00,346,2440,21.54,Chip Transaction,2003,Santa Barbara,CA,93103.0,5411,,2016-10-29,0,90,74,1929,11,495 Ocean View Lane,34.43,-119.68,25249.0,48580.0,1785.0,687,7,1,346,Mastercard,Debit,5100015130200657,2023-05-01,189,1,2,28886.0,2003-04-01,2011,"Grocery Stores, Supermarkets"
328,21789981,2018-09-09 07:41:00,1166,1222,18.1,Chip Transaction,59935,Hamilton,OH,45013.0,5499,,2018-09-09,0,44,66,1975,5,8659 El Camino Street,39.39,-84.56,19569.0,39898.0,43630.0,682,3,1,1166,Mastercard,Credit,5702377806791449,2021-08-01,548,1,2,14100.0,2010-02-01,2010,Miscellaneous Food Stores
329,20144843,2017-09-25 14:06:00,24,2827,54.26,Online Transaction,88459,ONLINE,,,5311,,2017-09-25,0,48,64,1971,11,55378 Burns Avenue,42.27,-89.06,18906.0,38554.0,47186.0,708,1,1,24,Mastercard,Debit,5519749178345162,2020-03-01,389,1,2,8165.0,2002-05-01,2009,Department Stores
330,22046721,2018-11-02 15:41:00,737,148,104.26,Swipe Transaction,80368,Medford,OR,97504.0,5912,,2018-11-02,0,61,60,1958,3,8301 Tenth Drive,42.33,-122.79,18961.0,30359.0,16552.0,758,2,1,737,Visa,Debit,4400094918183273,2020-06-01,700,0,1,6789.0,2007-01-01,2009,Drug Stores and Pharmacies
331,18569087,2016-10-26 10:38:00,277,4038,46.08,Chip Transaction,71879,Grenada,MS,38901.0,7230,,2016-10-26,0,46,68,1974,2,2292 South Street,33.77,-89.81,15568.0,31739.0,81905.0,799,5,0,277,Mastercard,Debit,5898229848182386,2024-04-01,150,1,1,12457.0,2015-07-01,2015,Beauty and Barber Shops
332,21458958,2018-07-01 09:03:00,1133,5211,4.69,Chip Transaction,21003,North Chili,NY,14514.0,5411,,2018-07-01,0,30,66,1989,10,781 Federal Street,43.11,-77.8,22855.0,46599.0,12700.0,684,4,1,1133,Visa,Debit,4332848097947146,2019-05-01,247,1,2,12512.0,2010-10-01,2012,"Grocery Stores, Supermarkets"
333,17740312,2016-05-02 14:44:00,660,5185,64.86,Chip Transaction,13523,Henrico,VA,23231.0,5310,,2016-05-02,0,31,68,1988,9,256 Jefferson Street,37.55,-77.46,21602.0,44041.0,109159.0,680,2,1,660,Amex,Credit,340488847692793,2022-02-01,91,1,1,12000.0,2010-10-01,2014,Discount Stores
334,21881566,2018-09-28 14:59:00,1568,977,-77.0,Chip Transaction,43293,Copiague,NY,11726.0,5499,,2018-09-28,0,47,67,1972,5,3816 Spruce Drive,40.67,-73.39,21077.0,42976.0,58765.0,748,3,1,1568,Mastercard,Debit,5318873508559141,2020-04-01,125,1,2,14418.0,2000-02-01,2005,Miscellaneous Food Stores
335,21347952,2018-06-07 16:58:00,1543,4425,52.1,Online Transaction,15143,ONLINE,,,4784,,2018-06-07,0,31,68,1988,10,5857 12th Avenue,34.14,-118.46,51976.0,105963.0,106266.0,684,4,1,1543,Mastercard,Debit,5125741393893480,2022-08-01,13,1,2,47709.0,2014-08-01,2014,Tolls and Bridge Fees
336,18774123,2016-12-08 22:54:00,146,1143,118.86,Chip Transaction,34302,Batavia,IL,60510.0,7922,,2016-12-08,0,47,67,1972,7,45 Ocean Lane,41.85,-88.3,33701.0,68710.0,201796.0,717,3,1,146,Mastercard,Credit,5895121423095414,2022-11-01,726,1,1,14200.0,2008-02-01,2011,Theatrical Producers
337,18201073,2016-08-08 17:06:00,27,5383,0.7,Chip Transaction,81536,Carthage,MS,39051.0,5310,,2016-08-08,0,78,63,1941,8,3553 Mountain View Drive,32.28,-90.0,22304.0,23821.0,22427.0,613,8,1,27,Visa,Debit,4102856768520788,2022-05-01,534,1,1,15082.0,2002-11-01,2006,Discount Stores
338,19450622,2017-05-01 21:19:00,1184,3932,-139.0,Chip Transaction,15574,Livermore,CA,94551.0,3393,,2017-05-01,0,70,74,1950,1,20382 Park Drive,37.56,-121.98,33727.0,68765.0,75608.0,798,5,0,1184,Mastercard,Debit,5827454191464284,2020-07-01,580,1,1,29828.0,2010-07-01,2011,Heat Treating Metal Services
339,17262765,2016-01-20 08:58:00,1428,5116,3.11,Chip Transaction,61195,Lebanon,MO,65536.0,5541,,2016-01-20,0,35,62,1984,11,800 Ninth Boulevard,37.67,-92.66,13963.0,28472.0,42750.0,508,1,1,1428,Mastercard,Debit (Prepaid),5027529544926447,2022-12-01,25,1,1,47.0,2008-10-01,2016,Service Stations
340,17693648,2016-04-22 13:43:00,373,2817,52.09,Chip Transaction,22204,Huntington,IN,46750.0,5541,,2016-04-22,0,61,63,1959,2,3270 Grant Avenue,40.59,-84.95,10493.0,21397.0,54771.0,812,4,0,373,Mastercard,Debit,5422145957568718,2020-12-01,242,1,2,8021.0,2001-05-01,2018,Service Stations
